Hotel ID,Place Name,lat,long,distance,Rating,Number of Ratings,Place Type,Hotel Name,Hotel Address
2001,Round Rock Premium Outlets,30.566408900000003,-97.6897003,9872.370820310842,4.4,11469,"shopping_mall,point_of_interest,establishment",Aloft Austin Round Rock,2951 Jazz Street Round Rock
2001,Kalahari Indoor Water Park,30.519584799999997,-97.6307147,4641.54825391951,4.5,1731,"amusement_park,point_of_interest,establishment",Aloft Austin Round Rock,2951 Jazz Street Round Rock
2001,Kalahari Resorts & Conventions - Round Rock,30.519772200000002,-97.6335988,4532.958349304211,4.4,7939,"hotel,resort_hotel,lodging,point_of_interest,establishment",Aloft Austin Round Rock,2951 Jazz Street Round Rock
2001,St. David's North Austin Medical Center,30.411612899999998,-97.7064293,9392.1522852051,4.2,3439,"hospital,point_of_interest,health,establishment",Aloft Austin Round Rock,2951 Jazz Street Round Rock
2001,St. David's Round Rock Medical Center,30.510491199999993,-97.7140142,6493.764423125726,4.4,2815,"hospital,point_of_interest,health,establishment",Aloft Austin Round Rock,2951 Jazz Street Round Rock
2001,Texas Department of Public Safety Driver License Mega Center,30.431074699999996,-97.6493493,5799.474088852125,3.4,1680,"local_government_office,point_of_interest,establishment",Aloft Austin Round Rock,2951 Jazz Street Round Rock
2001,Austin’s,30.4630677,-97.6662977,2508.6302422502017,4.1,5431,"amusement_park,bar,point_of_interest,establishment",Aloft Austin Round Rock,2951 Jazz Street Round Rock
2001,Baylor Scott & White Medical Center – Round Rock,30.5632925,-97.68499519999999,9396.670236824393,3.5,510,"hospital,point_of_interest,health,establishment",Aloft Austin Round Rock,2951 Jazz Street Round Rock
2001,Old Settlers Park,30.5363632,-97.6261296,6507.22600060354,4.7,5835,"tourist_attraction,park,point_of_interest,establishment",Aloft Austin Round Rock,2951 Jazz Street Round Rock
2001,Walnut Creek Metropolitan Park,30.4008039,-97.686422,9655.138298887086,4.7,3764,"tourist_attraction,park,point_of_interest,establishment",Aloft Austin Round Rock,2951 Jazz Street Round Rock
2001,Austin Community College - Round Rock Campus,30.562208100000003,-97.656784,8803.929861371145,3.9,113,"university,point_of_interest,establishment",Aloft Austin Round Rock,2951 Jazz Street Round Rock
2001,Play for All Abilities Park,30.514653,-97.652492,3516.213422452208,4.9,3933,"park,tourist_attraction,playground,point_of_interest,establishment",Aloft Austin Round Rock,2951 Jazz Street Round Rock
2001,Dell Diamond,30.5277278,-97.6300626,5477.419384282723,4.7,3435,"stadium,athletic_field,event_venue,sports_complex,point_of_interest,establishment",Aloft Austin Round Rock,2951 Jazz Street Round Rock
2001,Typhoon Texas Waterpark Austin,30.462215399999998,-97.5974995,5905.817709746553,4.4,3280,"amusement_park,swimming_pool,sports_complex,point_of_interest,establishment",Aloft Austin Round Rock,2951 Jazz Street Round Rock
2001,Ascension Seton Williamson Hospital,30.566809599999996,-97.6512068,9316.398879522452,3.8,718,"hospital,point_of_interest,health,establishment",Aloft Austin Round Rock,2951 Jazz Street Round Rock
2001,Austin Marriott North,30.4831994,-97.6877943,3221.378392209666,4.3,1527,"hotel,lodging,wedding_venue,event_venue,point_of_interest,establishment",Aloft Austin Round Rock,2951 Jazz Street Round Rock
2001,TxDMV Austin Regional Service Center,30.399645399999997,-97.6559716,9277.352913614943,3.6,433,"local_government_office,point_of_interest,establishment",Aloft Austin Round Rock,2951 Jazz Street Round Rock
2001,Hyatt Place Austin/Round Rock,30.482035500000002,-97.6872544,3171.6899089364347,4.4,896,"hotel,lodging,point_of_interest,establishment",Aloft Austin Round Rock,2951 Jazz Street Round Rock
2001,Rock 'N River Water Park,30.534545100000003,-97.6317024,6115.939155926522,4.5,1919,"tourist_attraction,amusement_park,swimming_pool,sports_complex,point_of_interest,establishment",Aloft Austin Round Rock,2951 Jazz Street Round Rock
2001,United States Postal Service,30.4445183,-97.6390673,4524.178107811084,2.3,369,"post_office,local_government_office,finance,point_of_interest,establishment",Aloft Austin Round Rock,2951 Jazz Street Round Rock
2002,Waterfall Glen Forest Preserve,41.7229593,-87.9725431,5638.015851274085,4.6,3784,"tourist_attraction,park,point_of_interest,establishment",Aloft Bolingbrook,500 North Janes Avenue Bolingbrook
2002,Hindu Temple of Greater Chicago,41.688407399999996,-88.00435449999999,4072.0847231985063,4.8,1952,"hindu_temple,tourist_attraction,place_of_worship,point_of_interest,establishment",Aloft Bolingbrook,500 North Janes Avenue Bolingbrook
2002,Benedictine University,41.778441799999996,-88.0952683,8531.520312822493,3.8,61,"university,point_of_interest,establishment",Aloft Bolingbrook,500 North Janes Avenue Bolingbrook
2002,The Mecca Center,41.7240039,-87.9479267,7673.5015097647665,4.8,425,"mosque,community_center,event_venue,place_of_worship,point_of_interest,establishment",Aloft Bolingbrook,500 North Janes Avenue Bolingbrook
2002,UChicago Medicine AdventHealth Bolingbrook,41.6807772,-88.08493299999999,5286.9132511355465,3.9,1420,"hospital,health,point_of_interest,establishment",Aloft Bolingbrook,500 North Janes Avenue Bolingbrook
2002,The Forge Adventure Park & Ziplines,41.679356899999995,-87.9883851,5727.5105346620185,4.5,1146,"amusement_park,event_venue,sports_complex,point_of_interest,establishment",Aloft Bolingbrook,500 North Janes Avenue Bolingbrook
2002,The Promenade Bolingbrook,41.71872,-88.0424238,579.2241322926698,4.5,5704,"shopping_mall,point_of_interest,establishment",Aloft Bolingbrook,500 North Janes Avenue Bolingbrook
2002,"Pelican Harbor Indoor/Outdoor Aquatic Park, Bolingbrook Park District",41.6942404,-88.1083124,6128.529285755763,4.4,1100,"tourist_attraction,amusement_park,swimming_pool,sports_complex,point_of_interest,establishment",Aloft Bolingbrook,500 North Janes Avenue Bolingbrook
2002,Aloft Bolingbrook,41.714214,-88.0388305,52.5183475302311,4.1,1162,"hotel,lodging,point_of_interest,establishment",Aloft Bolingbrook,500 North Janes Avenue Bolingbrook
2002,The Champagne Lodge & Luxury Suites,41.738055599999996,-87.9497222,7908.1910463011955,3.9,1328,"hotel,resort_hotel,lodging,point_of_interest,establishment",Aloft Bolingbrook,500 North Janes Avenue Bolingbrook
2002,Cypress Cove Family Aquatic Park,41.7346848,-88.0378242,2301.3363148899953,4.4,768,"tourist_attraction,amusement_park,swimming_pool,sports_complex,point_of_interest,establishment",Aloft Bolingbrook,500 North Janes Avenue Bolingbrook
2002,Assembly Hall of Jehovah's Witnesses,41.662924,-88.0875655,6947.949784901907,4.9,1057,"church,place_of_worship,point_of_interest,establishment",Aloft Bolingbrook,500 North Janes Avenue Bolingbrook
2002,Delta Hotels Chicago Willowbrook,41.7471683,-87.9436401,8760.219834575599,3.9,378,"hotel,wedding_venue,event_venue,lodging,point_of_interest,establishment",Aloft Bolingbrook,500 North Janes Avenue Bolingbrook
2002,Hilton Garden Inn Bolingbrook I-55,41.685866,-88.0703345,4048.989274091119,4.2,738,"hotel,lodging,point_of_interest,establishment",Aloft Bolingbrook,500 North Janes Avenue Bolingbrook
2002,La Quinta Inn by Wyndham Chicago Willowbrook,41.7443641,-87.9432454,8663.985247612096,3.3,958,"hotel,motel,lodging,point_of_interest,establishment",Aloft Bolingbrook,500 North Janes Avenue Bolingbrook
2002,Q Bar & Grill,41.74073380000001,-87.9721491,6322.747460774296,4.1,1117,"night_club,bar,event_venue,american_restaurant,sports_complex,restaurant,food,point_of_interest,establishment",Aloft Bolingbrook,500 North Janes Avenue Bolingbrook
2002,"Holiday Inn & Suites Bolingbrook, an IHG Hotel",41.683634,-88.0731753,4390.555514243293,4.0,802,"hotel,wedding_venue,event_venue,lodging,point_of_interest,establishment",Aloft Bolingbrook,500 North Janes Avenue Bolingbrook
2002,Red Roof PLUS+ Chicago - Willowbrook,41.7516263,-87.9434873,8991.02375155902,3.4,994,"hotel,motel,extended_stay_hotel,lodging,point_of_interest,establishment",Aloft Bolingbrook,500 North Janes Avenue Bolingbrook
2002,McCollum Park,41.7632335,-88.005681,6146.115580806855,4.7,846,"tourist_attraction,park,point_of_interest,establishment",Aloft Bolingbrook,500 North Janes Avenue Bolingbrook
2002,Downers Grove,41.795369400000006,-88.00983749999999,9372.102502691023,4.5,40,"train_station,transit_station,point_of_interest,establishment",Aloft Bolingbrook,500 North Janes Avenue Bolingbrook
2003,FlatIron Crossing,39.932982599999995,-105.1331166,4785.15807074805,4.4,10659,"shopping_mall,restaurant,food,clothing_store,point_of_interest,store,establishment",Aloft Broomfield Denver,8300 Arista Place Broomfield
2003,Water World,39.85836,-105.0095554,8632.722489931308,4.4,6800,"tourist_attraction,amusement_center,amusement_park,point_of_interest,establishment",Aloft Broomfield Denver,8300 Arista Place Broomfield
2003,Butterfly Pavilion,39.8873108,-105.0666409,2835.1066252689857,4.7,3418,"zoo,tourist_attraction,event_venue,point_of_interest,establishment",Aloft Broomfield Denver,8300 Arista Place Broomfield
2003,The Westin Westminster,39.8905932,-105.0655094,2662.9235531178156,4.3,3268,"hotel,wedding_venue,event_venue,lodging,point_of_interest,establishment",Aloft Broomfield Denver,8300 Arista Place Broomfield
2003,Omni Interlocken Hotel,39.9275466,-105.11864759999999,3465.25918677924,4.3,3569,"hotel,resort_hotel,lodging,point_of_interest,establishment",Aloft Broomfield Denver,8300 Arista Place Broomfield
2003,Boondocks Food and Fun - Northglenn,39.9035161,-104.98834839999999,8671.735250623042,4.1,4360,"amusement_park,banquet_hall,bowling_alley,sports_complex,event_venue,restaurant,food,point_of_interest,establishment",Aloft Broomfield Denver,8300 Arista Place Broomfield
2003,Rocky Mountain Metropolitan Airport (Terminal),39.9097481,-105.1118714,1927.1512374198965,4.0,196,"airport,point_of_interest,establishment",Aloft Broomfield Denver,8300 Arista Place Broomfield
2003,Front Range Community College- Westminster Campus,39.900812699999996,-105.03778369999999,4482.246754987615,4.0,257,"university,point_of_interest,establishment",Aloft Broomfield Denver,8300 Arista Place Broomfield
2003,Arvada Center for the Arts and Humanities,39.823499,-105.08352099999999,9130.578210463278,4.7,2096,"performing_arts_theater,art_gallery,event_venue,point_of_interest,establishment",Aloft Broomfield Denver,8300 Arista Place Broomfield
2003,Intermountain Health Good Samaritan Hospital,39.969903099999996,-105.0869388,7170.155000366846,3.3,628,"hospital,health,point_of_interest,establishment",Aloft Broomfield Denver,8300 Arista Place Broomfield
2003,Bounce Empire,39.9843324,-105.0899926,8769.932819361795,4.5,1062,"amusement_center,amusement_park,event_venue,point_of_interest,establishment",Aloft Broomfield Denver,8300 Arista Place Broomfield
2003,Denver Marriott Westminster,39.88396830000001,-105.07463759999999,2724.942986255732,4.4,1319,"hotel,wedding_venue,event_venue,lodging,point_of_interest,establishment",Aloft Broomfield Denver,8300 Arista Place Broomfield
2003,Delta Hotels Denver Thornton,39.9123541,-104.9886301,8678.346974556498,3.7,2646,"hotel,lodging,point_of_interest,establishment",Aloft Broomfield Denver,8300 Arista Place Broomfield
2003,AdventHealth Avista,39.951520599999995,-105.15137720000001,7323.804406838717,4.5,885,"hospital,health,point_of_interest,establishment",Aloft Broomfield Denver,8300 Arista Place Broomfield
2003,Adventure Golf & Raceway,39.871491999999996,-105.0515726,5000.590652703964,4.4,2755,"tourist_attraction,event_venue,point_of_interest,establishment",Aloft Broomfield Denver,8300 Arista Place Broomfield
2003,Renaissance Boulder Flatiron Hotel,39.926825,-105.12951710000002,4124.655963838387,4.4,1199,"hotel,wedding_venue,event_venue,lodging,point_of_interest,establishment",Aloft Broomfield Denver,8300 Arista Place Broomfield
2003,DoubleTree by Hilton Hotel Denver - Westminster,39.855561099999996,-105.05157,6444.415429547432,3.7,1751,"hotel,lodging,point_of_interest,establishment",Aloft Broomfield Denver,8300 Arista Place Broomfield
2003,Westminster Hills Open Space Off-Leash Area,39.8851448,-105.13708480000001,4610.134991771588,4.8,1919,"dog_park,tourist_attraction,hiking_area,park,point_of_interest,establishment",Aloft Broomfield Denver,8300 Arista Place Broomfield
2003,Drury Plaza Hotel Denver Westminster,39.8848552,-105.07249429999999,2734.166396625002,4.6,1535,"hotel,lodging,point_of_interest,establishment",Aloft Broomfield Denver,8300 Arista Place Broomfield
2003,UCHealth Broomfield Hospital,39.9104107,-105.091616,567.6508108972664,3.0,213,"hospital,health,point_of_interest,establishment",Aloft Broomfield Denver,8300 Arista Place Broomfield
2004,Buffalo Niagara International Airport,42.9412697,-78.73034129999999,1303.9306008003853,4.4,3900,"airport,point_of_interest,establishment",Aloft Buffalo Airport,4219 Genesee Street Buffalo
2004,Walden Galleria,42.914907,-78.7613417,3000.93376794552,4.3,13397,"shopping_mall,point_of_interest,establishment",Aloft Buffalo Airport,4219 Genesee Street Buffalo
2004,University at Buffalo (North Campus),43.0018111,-78.78952389999999,9366.754811282513,4.3,288,"university,point_of_interest,establishment",Aloft Buffalo Airport,4219 Genesee Street Buffalo
2004,ECMC Health Campus - Erie County Medical Center,42.9251297,-78.8306309,8177.280139823531,2.5,649,"hospital,health,point_of_interest,establishment",Aloft Buffalo Airport,4219 Genesee Street Buffalo
2004,The Buffalo Zoo,42.9371231,-78.85160909999999,9905.525104966657,4.3,6856,"zoo,tourist_attraction,point_of_interest,establishment",Aloft Buffalo Airport,4219 Genesee Street Buffalo
2004,Millard Fillmore Suburban Hospital,42.993969,-78.7301975,7163.837045654457,2.6,613,"hospital,health,point_of_interest,establishment",Aloft Buffalo Airport,4219 Genesee Street Buffalo
2004,University at Buffalo (South Campus),42.9533778,-78.8182806,7630.404053695612,5.0,10,"university,point_of_interest,establishment",Aloft Buffalo Airport,4219 Genesee Street Buffalo
2004,Sisters of Charity Hospital,42.928410899999996,-78.848085,9584.206084825728,3.0,339,"hospital,health,point_of_interest,establishment",Aloft Buffalo Airport,4219 Genesee Street Buffalo
2004,Buffalo Marriott Niagara,42.988460499999995,-78.79301629999999,8300.773908525513,4.1,1953,"hotel,wedding_venue,event_venue,lodging,point_of_interest,establishment",Aloft Buffalo Airport,4219 Genesee Street Buffalo
2004,Hyatt Place Buffalo/Amherst,42.960788199999996,-78.7696579,4721.5591841459145,4.5,1184,"hotel,lodging,point_of_interest,establishment",Aloft Buffalo Airport,4219 Genesee Street Buffalo
2004,VA WNY Healthcare System - Veteran’s Hospital,42.951155899999996,-78.812287,7087.471003918811,4.0,268,"pharmacy,hospital,doctor,health,point_of_interest,store,establishment",Aloft Buffalo Airport,4219 Genesee Street Buffalo
2004,Buffalo Airport Hotel,42.9351422,-78.7162146,1310.365309002466,4.0,688,"hotel,wedding_venue,bar,event_venue,lodging,restaurant,food,point_of_interest,establishment",Aloft Buffalo Airport,4219 Genesee Street Buffalo
2004,DoubleTree by Hilton Hotel Buffalo - Amherst,42.990064499999995,-78.7951712,8549.232005790134,3.9,1186,"hotel,lodging,point_of_interest,establishment",Aloft Buffalo Airport,4219 Genesee Street Buffalo
2004,Buffalo Museum of Science,42.9061321,-78.8436047,9580.71431311427,4.6,2831,"tourist_attraction,museum,point_of_interest,establishment",Aloft Buffalo Airport,4219 Genesee Street Buffalo
2004,Buffalo Depew Station,42.9072488,-78.7270496,2493.7901739857602,4.0,97,"train_station,transit_station,point_of_interest,establishment",Aloft Buffalo Airport,4219 Genesee Street Buffalo
2004,Frank Lloyd Wright's Martin House,42.9362328,-78.84799,9603.886428342836,4.8,1819,"museum,tourist_attraction,historical_landmark,point_of_interest,establishment",Aloft Buffalo Airport,4219 Genesee Street Buffalo
2004,Daemen University,42.965643899999996,-78.78892110000001,6230.50528259801,4.4,89,"university,school,point_of_interest,establishment",Aloft Buffalo Airport,4219 Genesee Street Buffalo
2004,University Station,42.9545111,-78.8201394,7816.2732009013125,3.8,53,"bus_stop,transit_station,point_of_interest,establishment",Aloft Buffalo Airport,4219 Genesee Street Buffalo
2004,Northtown Center at Amherst,42.9944487,-78.7824547,8369.32034574786,4.4,591,"event_venue,sports_complex,park,point_of_interest,establishment",Aloft Buffalo Airport,4219 Genesee Street Buffalo
2004,Salvatore's Garden Place Hotel,42.9474817,-78.69586129999999,3445.777241318051,3.8,2320,"hotel,bar,event_venue,lodging,restaurant,food,point_of_interest,establishment",Aloft Buffalo Airport,4219 Genesee Street Buffalo
2005,Baltimore/Washington International Thurgood Marshall Airport,39.1775921,-76.6683889,2202.8448177853156,4.3,19529,"airport,point_of_interest,establishment",Aloft BWI Baltimore Washington International Airport,1741 West Nursery Road Linthicum
2005,Arundel Mills,39.1578188,-76.72470679999999,5729.46523716168,4.4,28717,"shopping_mall,point_of_interest,establishment",Aloft BWI Baltimore Washington International Airport,1741 West Nursery Road Linthicum
2005,Live! Casino & Hotel Maryland,39.1577546,-76.7268883,5864.490169506659,4.2,12656,"casino,event_venue,hotel,lodging,spa,restaurant,food,point_of_interest,establishment",Aloft BWI Baltimore Washington International Airport,1741 West Nursery Road Linthicum
2005,BWI Thurgood Marshall,39.1924679,-76.6943881,1338.396025560479,3.9,303,"train_station,transit_station,point_of_interest,establishment",Aloft BWI Baltimore Washington International Airport,1741 West Nursery Road Linthicum
2005,Horseshoe Casino Baltimore,39.2736425,-76.6273722,9775.914544948871,3.8,9910,"casino,point_of_interest,establishment",Aloft BWI Baltimore Washington International Airport,1741 West Nursery Road Linthicum
2005,MVA - Glen Burnie,39.1974184,-76.6120591,5803.053494448276,3.3,2120,"local_government_office,point_of_interest,establishment",Aloft BWI Baltimore Washington International Airport,1741 West Nursery Road Linthicum
2005,"University of Maryland, Baltimore County",39.2553955,-76.7106829,7187.375485236323,4.3,310,"university,school,point_of_interest,establishment",Aloft BWI Baltimore Washington International Airport,1741 West Nursery Road Linthicum
2005,BWI Airport,39.18286,-76.66984,1625.9488047911684,4.0,86,"light_rail_station,transit_station,point_of_interest,establishment",Aloft BWI Baltimore Washington International Airport,1741 West Nursery Road Linthicum
2005,Ascension Saint Agnes Hospital,39.2717008,-76.6735285,8489.416263264353,2.7,805,"hospital,point_of_interest,health,establishment",Aloft BWI Baltimore Washington International Airport,1741 West Nursery Road Linthicum
2005,CCBC Catonsville,39.252670099999996,-76.7349371,7959.555767664342,4.0,244,"university,point_of_interest,establishment",Aloft BWI Baltimore Washington International Airport,1741 West Nursery Road Linthicum
2005,Medieval Times Dinner & Tournament,39.15411,-76.7251434,6062.0150809086645,4.6,4394,"tourist_attraction,performing_arts_theater,event_venue,restaurant,food,point_of_interest,establishment",Aloft BWI Baltimore Washington International Airport,1741 West Nursery Road Linthicum
2005,MedStar Harbor Hospital,39.251663099999995,-76.6144982,8380.344057787595,3.9,651,"hospital,point_of_interest,health,establishment",Aloft BWI Baltimore Washington International Airport,1741 West Nursery Road Linthicum
2005,Patapsco Valley State Park - Avalon Area,39.219812499999996,-76.7053595,3512.379757422772,4.6,785,"tourist_attraction,park,point_of_interest,establishment",Aloft BWI Baltimore Washington International Airport,1741 West Nursery Road Linthicum
2005,BWI Airport Marriott,39.1964453,-76.6829012,323.72430395499543,4.2,2237,"hotel,wedding_venue,event_venue,lodging,point_of_interest,establishment",Aloft BWI Baltimore Washington International Airport,1741 West Nursery Road Linthicum
2005,Baltimore Downtown Bus Station,39.2712747,-76.6271293,9552.490801475147,2.7,806,"bus_station,transit_station,point_of_interest,establishment",Aloft BWI Baltimore Washington International Airport,1741 West Nursery Road Linthicum
2005,Hilton Baltimore BWI Airport,39.1958232,-76.68067839999999,120.10180300203636,4.2,2479,"hotel,lodging,point_of_interest,establishment",Aloft BWI Baltimore Washington International Airport,1741 West Nursery Road Linthicum
2005,UM Baltimore Washington Medical Center,39.1379078,-76.6217513,8102.660856694511,2.2,843,"hospital,point_of_interest,health,establishment",Aloft BWI Baltimore Washington International Airport,1741 West Nursery Road Linthicum
2005,Embassy Suites by Hilton Baltimore at BWI Airport,39.206412,-76.6906154,1554.7920288880111,4.0,2594,"hotel,lodging,point_of_interest,establishment",Aloft BWI Baltimore Washington International Airport,1741 West Nursery Road Linthicum
2005,The Westin Baltimore Washington Airport - BWI,39.206647499999995,-76.6929846,1708.6751778922885,4.2,1604,"hotel,wedding_venue,event_venue,lodging,point_of_interest,establishment",Aloft BWI Baltimore Washington International Airport,1741 West Nursery Road Linthicum
2005,DoubleTree by Hilton Hotel Baltimore - BWI Airport,39.2018087,-76.6895109,1122.5699346252304,4.0,2139,"hotel,lodging,point_of_interest,establishment",Aloft BWI Baltimore Washington International Airport,1741 West Nursery Road Linthicum
2006,University of North Carolina at Chapel Hill,35.9049122,-79.0469134,1223.1842309682063,4.6,1073,"university,point_of_interest,establishment",Aloft Chapel Hill,1001 South Hamilton Road Chapel Hill
2006,UNC Hospitals,35.9049367,-79.0506255,1032.0427864575574,3.2,581,"hospital,health,point_of_interest,establishment",Aloft Chapel Hill,1001 South Hamilton Road Chapel Hill
2006,UNC chapel hill,35.90041,-79.0397081,2033.376734731683,4.6,10,"university,point_of_interest,establishment",Aloft Chapel Hill,1001 South Hamilton Road Chapel Hill
2006,Kenan Memorial Stadium,35.9069535,-79.0478649,999.418762376628,4.7,1448,"stadium,sports_complex,event_venue,point_of_interest,establishment",Aloft Chapel Hill,1001 South Hamilton Road Chapel Hill
2006,"The Carolina Inn, a Destination by Hyatt Hotel",35.9097578,-79.0542753,407.9695923750308,4.7,1432,"resort_hotel,hotel,lodging,point_of_interest,establishment",Aloft Chapel Hill,1001 South Hamilton Road Chapel Hill
2006,Morehead Planetarium and Science Center,35.9139033,-79.05051,486.74027689899543,4.4,226,"tourist_attraction,museum,point_of_interest,establishment",Aloft Chapel Hill,1001 South Hamilton Road Chapel Hill
2006,Gillings School of Global Public Health,35.905780299999996,-79.0540572,840.545377999848,4.7,14,"health,point_of_interest,local_government_office,establishment",Aloft Chapel Hill,1001 South Hamilton Road Chapel Hill
2006,Hyatt Place Durham/Southpoint,35.900841799999995,-78.9615153,8606.125015529731,4.4,844,"hotel,lodging,point_of_interest,establishment",Aloft Chapel Hill,1001 South Hamilton Road Chapel Hill
2006,Phillips Hall,35.9109548,-79.0528068,370.3332629132351,4.1,30,"university,point_of_interest,establishment",Aloft Chapel Hill,1001 South Hamilton Road Chapel Hill
2006,Hampton Inn & Suites Chapel Hill-Carrboro/Downtown,35.910436,-79.06755749999999,1098.7109963790358,4.4,862,"hotel,lodging,point_of_interest,establishment",Aloft Chapel Hill,1001 South Hamilton Road Chapel Hill
2006,North Carolina Botanical Garden,35.8992596,-79.033352,2550.7900339298017,4.6,1221,"tourist_attraction,park,point_of_interest,establishment",Aloft Chapel Hill,1001 South Hamilton Road Chapel Hill
2006,Sheraton Chapel Hill Hotel,35.941526499999995,-79.01779379999999,4653.9986298717695,4.1,845,"hotel,wedding_venue,event_venue,lodging,point_of_interest,establishment",Aloft Chapel Hill,1001 South Hamilton Road Chapel Hill
2006,"Rizzo Center, a Destination by Hyatt Hotel",35.912365,-79.0046208,4614.035895787402,4.7,610,"resort_hotel,hotel,lodging,point_of_interest,establishment",Aloft Chapel Hill,1001 South Hamilton Road Chapel Hill
2006,AC Hotel Chapel Hill Downtown,35.913537399999996,-79.05840309999999,233.4620737820219,4.3,440,"hotel,lodging,point_of_interest,establishment",Aloft Chapel Hill,1001 South Hamilton Road Chapel Hill
2006,Hyatt Place Chapel Hill / Southern Village,35.8814618,-79.0624931,3579.535591372957,4.5,540,"hotel,lodging,point_of_interest,establishment",Aloft Chapel Hill,1001 South Hamilton Road Chapel Hill
2006,Friday Center,35.8995471,-79.01244980000001,4192.83124252232,3.6,17,"university,point_of_interest,establishment",Aloft Chapel Hill,1001 South Hamilton Road Chapel Hill
2006,SpringHill Suites Durham Chapel Hill,35.951890999999996,-78.991982,7181.288871782447,4.4,708,"hotel,lodging,point_of_interest,establishment",Aloft Chapel Hill,1001 South Hamilton Road Chapel Hill
2006,Courtyard Chapel Hill,35.9014277,-79.01024040000001,4310.8354622733905,4.3,652,"hotel,lodging,point_of_interest,establishment",Aloft Chapel Hill,1001 South Hamilton Road Chapel Hill
2006,Aloft Chapel Hill,35.9076111,-79.0230335,3019.6135544280414,4.1,733,"hotel,lodging,point_of_interest,establishment",Aloft Chapel Hill,1001 South Hamilton Road Chapel Hill
2006,Planet Fitness,35.9281073,-79.0268998,3088.911863696517,4.5,680,"gym,fitness_center,spa,health,point_of_interest,establishment",Aloft Chapel Hill,1001 South Hamilton Road Chapel Hill
2007,Charleston International Airport,32.8916648,-80.0395233,3387.594744430574,4.4,4242,"airport,point_of_interest,establishment",Aloft Charleston Airport & Convention Center,4875 Tanger Outlet Boulevard North Charleston
2007,Tanger Outlets Charleston,32.8737687,-80.01930109999999,644.6326018727312,4.5,9572,"shopping_mall,point_of_interest,establishment",Aloft Charleston Airport & Convention Center,4875 Tanger Outlet Boulevard North Charleston
2007,Magnolia Plantation and Gardens,32.8786105,-80.0883389,6949.164277168152,4.5,8406,"historical_landmark,tourist_attraction,wedding_venue,park,event_venue,museum,point_of_interest,establishment",Aloft Charleston Airport & Convention Center,4875 Tanger Outlet Boulevard North Charleston
2007,Northwoods Mall,32.944607,-80.044319,8804.74573774888,4.1,7851,"shopping_mall,point_of_interest,establishment",Aloft Charleston Airport & Convention Center,4875 Tanger Outlet Boulevard North Charleston
2007,The Citadel,32.7958216,-79.95943679999999,9678.304271175777,4.6,168,"university,school,point_of_interest,establishment",Aloft Charleston Airport & Convention Center,4875 Tanger Outlet Boulevard North Charleston
2007,Riverfront Park,32.8675754,-79.966717,4489.488687784656,4.7,2888,"park,tourist_attraction,point_of_interest,establishment",Aloft Charleston Airport & Convention Center,4875 Tanger Outlet Boulevard North Charleston
2007,Citadel Mall,32.798342,-80.031711,8061.023311533116,3.7,4494,"shopping_mall,point_of_interest,establishment",Aloft Charleston Airport & Convention Center,4875 Tanger Outlet Boulevard North Charleston
2007,Embassy Suites by Hilton Charleston Airport Hotel & Convention Center,32.8664209,-80.0194015,548.6183570159483,3.9,2610,"hotel,lodging,point_of_interest,establishment",Aloft Charleston Airport & Convention Center,4875 Tanger Outlet Boulevard North Charleston
2007,Firefly Distillery,32.8707243,-79.9829097,2975.9755598744423,4.6,704,"tourist_attraction,point_of_interest,establishment",Aloft Charleston Airport & Convention Center,4875 Tanger Outlet Boulevard North Charleston
2007,Trident Technical College,32.9280591,-80.0307641,6689.896195408442,3.5,218,"university,point_of_interest,establishment",Aloft Charleston Airport & Convention Center,4875 Tanger Outlet Boulevard North Charleston
2007,North Charleston Marriott,32.8724983,-80.009395,605.0442408141879,4.3,1569,"hotel,event_venue,lodging,point_of_interest,establishment",Aloft Charleston Airport & Convention Center,4875 Tanger Outlet Boulevard North Charleston
2007,Bon Secours St. Francis Hospital,32.8085496,-80.0418384,7226.532668149477,3.0,378,"hospital,medical_lab,health,point_of_interest,establishment",Aloft Charleston Airport & Convention Center,4875 Tanger Outlet Boulevard North Charleston
2007,Charles Towne Landing State Historic Site,32.8104054,-79.9951397,6812.715779917625,4.6,617,"tourist_attraction,park,museum,point_of_interest,establishment",Aloft Charleston Airport & Convention Center,4875 Tanger Outlet Boulevard North Charleston
2007,Hampton Park,32.7996305,-79.9561142,9498.414516909983,4.8,1573,"park,tourist_attraction,point_of_interest,establishment",Aloft Charleston Airport & Convention Center,4875 Tanger Outlet Boulevard North Charleston
2007,South Carolina Department of Motor Vehicles - North Charleston,32.8474344,-80.0149348,2444.723705241472,3.6,512,"point_of_interest,local_government_office,establishment",Aloft Charleston Airport & Convention Center,4875 Tanger Outlet Boulevard North Charleston
2007,"Crowne Plaza Charleston Airport - Conv Ctr, an IHG Hotel",32.874978999999996,-80.015596,623.3508831205778,4.2,1152,"hotel,wedding_venue,event_venue,lodging,point_of_interest,establishment",Aloft Charleston Airport & Convention Center,4875 Tanger Outlet Boulevard North Charleston
2007,Hilton Garden Inn Charleston Airport,32.8676139,-80.0254331,1018.9482716921788,4.1,1285,"hotel,lodging,point_of_interest,establishment",Aloft Charleston Airport & Convention Center,4875 Tanger Outlet Boulevard North Charleston
2007,Hyatt Place Charleston Airport/Convention Center,32.864217,-80.0176414,638.9566863992667,4.3,885,"hotel,lodging,point_of_interest,establishment",Aloft Charleston Airport & Convention Center,4875 Tanger Outlet Boulevard North Charleston
2007,South Carolina Department of Motor Vehicles - Charleston,32.7987013,-80.0271118,7948.072447913424,4.1,397,"point_of_interest,local_government_office,establishment",Aloft Charleston Airport & Convention Center,4875 Tanger Outlet Boulevard North Charleston
2007,Hyatt Place North Charleston,32.9320727,-80.0479936,7627.257298733024,4.2,1085,"hotel,lodging,point_of_interest,establishment",Aloft Charleston Airport & Convention Center,4875 Tanger Outlet Boulevard North Charleston
2008,Charlotte Douglas International Airport,35.2163002,-80.9539472,4915.380797626438,3.9,40488,"airport,point_of_interest,establishment",Aloft Charlotte Airport,3928 Memorial Parkway Charlotte
2008,Carowinds,35.1024013,-80.9412735,9343.27744125553,4.4,29830,"amusement_park,point_of_interest,establishment",Aloft Charlotte Airport,3928 Memorial Parkway Charlotte
2008,Bank of America Stadium,35.2257795,-80.852965,7439.541176739201,4.6,9678,"stadium,sports_complex,event_venue,point_of_interest,establishment",Aloft Charlotte Airport,3928 Memorial Parkway Charlotte
2008,SouthPark,35.1521873,-80.8317589,8516.182667647261,4.5,10952,"shopping_mall,point_of_interest,establishment",Aloft Charlotte Airport,3928 Memorial Parkway Charlotte
2008,Charlotte Premium Outlets,35.16817090000001,-80.97042499999999,5169.87724080409,4.5,10762,"shopping_mall,point_of_interest,establishment",Aloft Charlotte Airport,3928 Memorial Parkway Charlotte
2008,Atrium Health Carolinas Medical Center,35.2037121,-80.83882260000001,7429.574332137406,3.2,1153,"hospital,health,point_of_interest,establishment",Aloft Charlotte Airport,3928 Memorial Parkway Charlotte
2008,NASCAR Hall of Fame,35.2211366,-80.8439538,7811.206947044671,4.7,6747,"museum,tourist_attraction,event_venue,point_of_interest,establishment",Aloft Charlotte Airport,3928 Memorial Parkway Charlotte
2008,Novant Health Presbyterian Medical Center,35.2117536,-80.8244434,8953.485824877682,3.1,1117,"hospital,health,point_of_interest,establishment",Aloft Charlotte Airport,3928 Memorial Parkway Charlotte
2008,Discovery Place Science,35.229441,-80.8409271,8555.961961618048,4.6,4734,"tourist_attraction,playground,aquarium,movie_theater,museum,point_of_interest,establishment",Aloft Charlotte Airport,3928 Memorial Parkway Charlotte
2008,The Westin Charlotte,35.2221036,-80.84726979999999,7616.215644455538,4.3,3369,"hotel,wedding_venue,event_venue,lodging,point_of_interest,establishment",Aloft Charlotte Airport,3928 Memorial Parkway Charlotte
2008,Freedom Park,35.191448799999996,-80.8434408,6731.742002159396,4.8,7557,"park,tourist_attraction,point_of_interest,establishment",Aloft Charlotte Airport,3928 Memorial Parkway Charlotte
2008,Museum of Illusions - Charlotte,35.2224545,-80.849133,7498.210719264097,4.4,2190,"museum,tourist_attraction,art_gallery,point_of_interest,establishment",Aloft Charlotte Airport,3928 Memorial Parkway Charlotte
2008,Hilton Charlotte Uptown,35.2239649,-80.8438219,7991.613554667757,4.3,2796,"hotel,lodging,point_of_interest,establishment",Aloft Charlotte Airport,3928 Memorial Parkway Charlotte
2008,Billy Graham Library,35.1905516,-80.9093017,1004.1988092606566,4.8,1681,"museum,tourist_attraction,library,cafe,book_store,food,point_of_interest,store,establishment",Aloft Charlotte Airport,3928 Memorial Parkway Charlotte
2008,JW Marriott Charlotte,35.2223858,-80.8481961,7564.023416339944,4.4,605,"hotel,wedding_venue,event_venue,lodging,point_of_interest,establishment",Aloft Charlotte Airport,3928 Memorial Parkway Charlotte
2008,Charlotte Marriott City Center,35.2279309,-80.8435714,8262.96784614765,4.4,2188,"hotel,lodging,point_of_interest,establishment",Aloft Charlotte Airport,3928 Memorial Parkway Charlotte
2008,Truist Field,35.2284058,-80.84865289999999,7927.859425322532,4.7,3793,"stadium,sports_complex,event_venue,athletic_field,sports_club,point_of_interest,establishment",Aloft Charlotte Airport,3928 Memorial Parkway Charlotte
2008,Mecklenburg County Courthouse,35.2195657,-80.83648629999999,8310.667103755643,2.7,172,"courthouse,local_government_office,point_of_interest,establishment",Aloft Charlotte Airport,3928 Memorial Parkway Charlotte
2008,Omni Charlotte Hotel,35.2265484,-80.8426556,8241.183427740769,4.1,2801,"hotel,lodging,point_of_interest,establishment",Aloft Charlotte Airport,3928 Memorial Parkway Charlotte
2008,Le Méridien Charlotte,35.2173787,-80.8387142,8017.929993170054,4.0,2057,"hotel,lodging,point_of_interest,establishment",Aloft Charlotte Airport,3928 Memorial Parkway Charlotte
2009,Atrium Health Pineville,35.0918492,-80.8713906,4442.311964760819,2.7,677,"hospital,health,point_of_interest,establishment",Aloft Charlotte Ballantyne,13139 Ballantyne Corporate Place Charlotte
2009,Carolina Place Mall,35.0798157,-80.8776728,3829.2837214835795,4.1,65,"bus_station,transit_station,point_of_interest,establishment",Aloft Charlotte Ballantyne,13139 Ballantyne Corporate Place Charlotte
2009,"The Ballantyne, a Luxury Collection Hotel, Charlotte",35.0561088,-80.847352,345.81516490465026,4.6,1793,"hotel,lodging,point_of_interest,establishment",Aloft Charlotte Ballantyne,13139 Ballantyne Corporate Place Charlotte
2009,North Carolina Division of Motor Vehicles,35.133951599999996,-80.8937448,9512.958273436585,2.3,1111,"local_government_office,point_of_interest,establishment",Aloft Charlotte Ballantyne,13139 Ballantyne Corporate Place Charlotte
2009,I-485 Station,35.1071494,-80.8829033,6439.708467384442,4.2,72,"light_rail_station,transit_station,point_of_interest,establishment",Aloft Charlotte Ballantyne,13139 Ballantyne Corporate Place Charlotte
2009,Elevation Church - Ballantyne,35.029930799999995,-80.8557269,3316.844605646413,4.8,1254,"church,place_of_worship,point_of_interest,establishment",Aloft Charlotte Ballantyne,13139 Ballantyne Corporate Place Charlotte
2009,DMV Vehicle Registration & Renewal,35.139858200000006,-80.878601,9569.809634099938,3.4,534,"local_government_office,point_of_interest,establishment",Aloft Charlotte Ballantyne,13139 Ballantyne Corporate Place Charlotte
2009,Calvary Church,35.0853208,-80.8141919,4087.933140457264,4.6,260,"church,place_of_worship,point_of_interest,establishment",Aloft Charlotte Ballantyne,13139 Ballantyne Corporate Place Charlotte
2009,Elon Park,35.020083299999996,-80.84126959999999,4269.42575644788,4.6,651,"park,tourist_attraction,point_of_interest,establishment",Aloft Charlotte Ballantyne,13139 Ballantyne Corporate Place Charlotte
2009,Pineville Lake Park,35.0792919,-80.8946323,5101.1012763488625,4.8,1012,"park,campground,lodging,point_of_interest,establishment",Aloft Charlotte Ballantyne,13139 Ballantyne Corporate Place Charlotte
2009,Colonel Francis J. Beatty Park,35.065169399999995,-80.7410252,9470.706985793682,4.7,1701,"park,tourist_attraction,wedding_venue,event_venue,point_of_interest,establishment",Aloft Charlotte Ballantyne,13139 Ballantyne Corporate Place Charlotte
2009,AC Hotel Charlotte Ballantyne,35.053681,-80.852562,882.1159106306441,4.1,216,"hotel,lodging,point_of_interest,establishment",Aloft Charlotte Ballantyne,13139 Ballantyne Corporate Place Charlotte
2009,South Carolina Department of Motor Vehicles - Fort Mill,35.0758637,-80.9362879,8555.10863455659,3.9,570,"local_government_office,point_of_interest,establishment",Aloft Charlotte Ballantyne,13139 Ballantyne Corporate Place Charlotte
2009,Blakeney Town Center,35.0348188,-80.8064721,4359.009659668561,4.5,2531,"shopping_mall,point_of_interest,establishment",Aloft Charlotte Ballantyne,13139 Ballantyne Corporate Place Charlotte
2009,Hilton Garden Inn Charlotte Waverly,35.051413100000005,-80.76651640000001,7162.9198895151185,4.5,720,"hotel,lodging,point_of_interest,establishment",Aloft Charlotte Ballantyne,13139 Ballantyne Corporate Place Charlotte
2009,Ballantyne's Backyard,35.0604928,-80.8409643,417.30457843626965,4.7,237,"park,point_of_interest,establishment",Aloft Charlotte Ballantyne,13139 Ballantyne Corporate Place Charlotte
2009,Waverly,35.0519044,-80.7680542,7017.947824725334,4.5,1706,"shopping_mall,point_of_interest,establishment",Aloft Charlotte Ballantyne,13139 Ballantyne Corporate Place Charlotte
2009,Stone Crest at Piper Glen,35.060774599999995,-80.8165308,2582.1480401342615,4.5,3113,"shopping_mall,point_of_interest,establishment",Aloft Charlotte Ballantyne,13139 Ballantyne Corporate Place Charlotte
2009,Aloft Charlotte Ballantyne,35.0583702,-80.84474089999999,0.7377290266153492,4.5,765,"hotel,lodging,point_of_interest,establishment",Aloft Charlotte Ballantyne,13139 Ballantyne Corporate Place Charlotte
2009,Sky Zone Trampoline Park,35.0948864,-80.8771257,5016.494984587246,4.0,1024,"amusement_center,amusement_park,sports_complex,point_of_interest,establishment",Aloft Charlotte Ballantyne,13139 Ballantyne Corporate Place Charlotte
2010,Naval Medical Center Portsmouth,36.844072,-76.30480399999999,9184.29908152537,2.7,547,"hospital,point_of_interest,health,establishment",Aloft Chesapeake,1454 Crossways Boulevard Chesapeake
2010,Greenbrier Mall,36.7788889,-76.2269444,1327.384453179227,4.1,4589,"shopping_mall,atm,finance,point_of_interest,establishment",Aloft Chesapeake,1454 Crossways Boulevard Chesapeake
2010,Sentara Leigh Hospital,36.8513793,-76.1904277,9293.623536902021,3.3,543,"hospital,point_of_interest,health,establishment",Aloft Chesapeake,1454 Crossways Boulevard Chesapeake
2010,Norfolk State University,36.847929199999996,-76.2620987,7912.837457236043,4.5,268,"university,point_of_interest,establishment",Aloft Chesapeake,1454 Crossways Boulevard Chesapeake
2010,Hilton Norfolk The Main,36.8464458,-76.2918332,8755.040870171126,4.4,5548,"hotel,lodging,point_of_interest,establishment",Aloft Chesapeake,1454 Crossways Boulevard Chesapeake
2010,MacArthur Center,36.8488398,-76.2878664,8815.724636849796,4.3,8035,"shopping_mall,point_of_interest,establishment",Aloft Chesapeake,1454 Crossways Boulevard Chesapeake
2010,Norfolk Waterside Marriott,36.8455935,-76.2908727,8630.013043353303,4.2,3348,"hotel,lodging,point_of_interest,establishment",Aloft Chesapeake,1454 Crossways Boulevard Chesapeake
2010,Chesapeake Regional Medical Center,36.7461622,-76.24608850000001,3631.0175356357086,2.7,661,"hospital,point_of_interest,health,establishment",Aloft Chesapeake,1454 Crossways Boulevard Chesapeake
2010,Norfolk Scope Arena,36.8532544,-76.28687800000002,9214.521206897827,4.4,2830,"stadium,sports_complex,event_venue,point_of_interest,establishment",Aloft Chesapeake,1454 Crossways Boulevard Chesapeake
2010,Sheraton Norfolk Waterside Hotel,36.8437588,-76.28962709999999,8397.966180188474,4.2,3551,"hotel,wedding_venue,lodging,event_venue,point_of_interest,establishment",Aloft Chesapeake,1454 Crossways Boulevard Chesapeake
2010,Regent University,36.8007899,-76.1928949,5006.725188947163,4.6,428,"university,school,point_of_interest,health,establishment",Aloft Chesapeake,1454 Crossways Boulevard Chesapeake
2010,Chrysler Museum of Art,36.8563889,-76.2930556,9773.587463265225,4.8,2727,"museum,point_of_interest,establishment",Aloft Chesapeake,1454 Crossways Boulevard Chesapeake
2010,"The Founders Inn and Spa, Tapestry Collection by Hilton",36.803477699999995,-76.19090969999999,5310.420883691813,4.1,2404,"hotel,lodging,point_of_interest,establishment",Aloft Chesapeake,1454 Crossways Boulevard Chesapeake
2010,Renaissance Portsmouth-Norfolk Waterfront Hotel,36.837545,-76.29632200000002,8150.136953527764,4.1,2331,"hotel,lodging,point_of_interest,establishment",Aloft Chesapeake,1454 Crossways Boulevard Chesapeake
2010,Norfolk Station,36.8434849,-76.2760966,7828.730233975884,4.3,155,"transit_station,bus_station,train_station,point_of_interest,establishment",Aloft Chesapeake,1454 Crossways Boulevard Chesapeake
2010,Nauticus,36.8477024,-76.29509139999999,9024.55317998058,4.7,1724,"museum,tourist_attraction,point_of_interest,establishment",Aloft Chesapeake,1454 Crossways Boulevard Chesapeake
2010,Norfolk Tides at Harbor Park Stadium,36.8423801,-76.27896129999999,7820.037149117288,4.6,3316,"stadium,sports_complex,athletic_field,event_venue,point_of_interest,establishment",Aloft Chesapeake,1454 Crossways Boulevard Chesapeake
2010,USS Wisconsin BB-64,36.848397,-76.2953745,9103.523325567,4.8,5795,"historical_landmark,tourist_attraction,museum,point_of_interest,establishment",Aloft Chesapeake,1454 Crossways Boulevard Chesapeake
2010,Children's Museum of Virginia,36.835,-76.2988889,8066.435549247384,4.6,2650,"tourist_attraction,museum,event_venue,point_of_interest,establishment",Aloft Chesapeake,1454 Crossways Boulevard Chesapeake
2010,Holiday Inn Virginia Beach - Norfolk,36.8440812,-76.1807305,9085.862521100125,3.8,1938,"hotel,lodging,point_of_interest,establishment",Aloft Chesapeake,1454 Crossways Boulevard Chesapeake
2011,Chicago O'Hare International Airport,41.9802588,-87.9089858,3430.30356172076,4.0,50409,"airport,point_of_interest,establishment",Aloft Chicago O'Hare,9700 Balmoral Avenue Rosemont
2011,Fashion Outlets of Chicago,41.974989799999996,-87.86711810000001,241.60267679627762,4.4,19931,"shopping_mall,restaurant,food,clothing_store,point_of_interest,store,establishment",Aloft Chicago O'Hare,9700 Balmoral Avenue Rosemont
2011,Rivers Casino Des Plaines,41.9974717,-87.8644988,2278.605427365079,3.9,11855,"casino,tourist_attraction,point_of_interest,establishment",Aloft Chicago O'Hare,9700 Balmoral Avenue Rosemont
2011,Advocate Lutheran General Hospital,42.0385609,-87.8476337,7030.426191796614,3.3,987,"hospital,health,point_of_interest,establishment",Aloft Chicago O'Hare,9700 Balmoral Avenue Rosemont
2011,Harlem Irving Plaza,41.9557582,-87.8085804,5434.628997777601,4.3,8658,"shopping_mall,point_of_interest,establishment",Aloft Chicago O'Hare,9700 Balmoral Avenue Rosemont
2011,Hyatt Regency O'Hare Chicago,41.9810036,-87.8592721,819.9516047887236,4.4,7297,"hotel,lodging,point_of_interest,establishment",Aloft Chicago O'Hare,9700 Balmoral Avenue Rosemont
2011,Chicago O' Hare Airport Terminal 5,41.9751668,-87.8900987,1863.9997517406475,3.9,869,"airport,point_of_interest,establishment",Aloft Chicago O'Hare,9700 Balmoral Avenue Rosemont
2011,Advocate Lutheran General Emergency Services,42.0384783,-87.847611,7021.944387860372,2.5,127,"hospital,health,point_of_interest,establishment",Aloft Chicago O'Hare,9700 Balmoral Avenue Rosemont
2011,Chicago North Illinois Secretary of State Facility,41.9798609,-87.7587039,9015.24286078511,3.7,2495,"local_government_office,point_of_interest,establishment",Aloft Chicago O'Hare,9700 Balmoral Avenue Rosemont
2011,King Spa & Sauna,42.0223887,-87.7999419,7529.4435877784845,4.2,2130,"spa,point_of_interest,establishment",Aloft Chicago O'Hare,9700 Balmoral Avenue Rosemont
2011,Loews Chicago O'Hare Hotel,41.9745297,-87.86362729999999,443.16609797493464,4.5,4658,"hotel,wedding_venue,event_venue,lodging,point_of_interest,establishment",Aloft Chicago O'Hare,9700 Balmoral Avenue Rosemont
2011,Hilton Chicago O'Hare Airport,41.98028,-87.9089979,3431.5386952618005,3.8,5277,"hotel,lodging,point_of_interest,establishment",Aloft Chicago O'Hare,9700 Balmoral Avenue Rosemont
2011,Dominican University,41.902411,-87.822057,9124.820859987087,4.6,80,"university,point_of_interest,establishment",Aloft Chicago O'Hare,9700 Balmoral Avenue Rosemont
2011,Wilbur Wright College,41.958237499999996,-87.7877496,6935.63509395192,4.2,234,"university,point_of_interest,establishment",Aloft Chicago O'Hare,9700 Balmoral Avenue Rosemont
2011,"Crowne Plaza Chicago Ohare Hotel & Conf Ctr, an IHG Hotel",41.9776439,-87.8641998,295.43439067464243,3.9,3348,"hotel,wedding_venue,event_venue,lodging,point_of_interest,establishment",Aloft Chicago O'Hare,9700 Balmoral Avenue Rosemont
2011,Triton College,41.9152058,-87.8407378,7236.597554193742,4.2,228,"university,school,point_of_interest,establishment",Aloft Chicago O'Hare,9700 Balmoral Avenue Rosemont
2011,The Westin O'Hare,41.988853399999996,-87.8613331,1407.0767359561826,4.3,3359,"hotel,wedding_venue,event_venue,lodging,point_of_interest,establishment",Aloft Chicago O'Hare,9700 Balmoral Avenue Rosemont
2011,Terminal 1,41.97925,-87.90558999999999,3140.7631797098766,3.3,6,"light_rail_station,transit_station,point_of_interest,establishment",Aloft Chicago O'Hare,9700 Balmoral Avenue Rosemont
2011,Ascension Resurrection,41.9880956,-87.8145811,4557.381524989576,3.5,654,"hospital,health,point_of_interest,establishment",Aloft Chicago O'Hare,9700 Balmoral Avenue Rosemont
2011,Marriott Chicago O'Hare,41.9855138,-87.84118989999999,2382.075346740666,4.2,2403,"hotel,wedding_venue,event_venue,lodging,point_of_interest,establishment",Aloft Chicago O'Hare,9700 Balmoral Avenue Rosemont
2012,Raleigh-Durham International Airport,35.880078999999995,-78.7879963,4036.0712378558906,4.4,10174,"airport,point_of_interest,establishment",Courtyard Raleigh-Durham Airport/Brier Creek,10600 Little Brier Creek Lane Raleigh
2012,Frankie's of Raleigh,35.9193406,-78.79401899999999,493.0407090076754,4.4,7460,"amusement_center,tourist_attraction,amusement_park,event_venue,food,point_of_interest,establishment",Courtyard Raleigh-Durham Airport/Brier Creek,10600 Little Brier Creek Lane Raleigh
2012,Angus Barn,35.8992,-78.7635889,3047.1892868405916,4.6,8886,"steak_house,banquet_hall,seafood_restaurant,wedding_venue,night_club,bar,event_venue,restaurant,food,point_of_interest,establishment",Courtyard Raleigh-Durham Airport/Brier Creek,10600 Little Brier Creek Lane Raleigh
2012,The Umstead Hotel and Spa,35.829830099999995,-78.7641448,9897.317577752056,4.7,1852,"hotel,spa,lodging,restaurant,food,point_of_interest,establishment",Courtyard Raleigh-Durham Airport/Brier Creek,10600 Little Brier Creek Lane Raleigh
2012,Sheraton Imperial Hotel Raleigh-Durham Airport at Research Triangle Park,35.8778814,-78.83830379999999,6101.552319748858,4.2,2045,"hotel,lodging,wedding_venue,event_venue,point_of_interest,establishment",Courtyard Raleigh-Durham Airport/Brier Creek,10600 Little Brier Creek Lane Raleigh
2012,Embassy Suites by Hilton Raleigh Durham Research Triangle,35.8330755,-78.7720437,9398.736690493924,4.4,2486,"hotel,lodging,point_of_interest,establishment",Courtyard Raleigh-Durham Airport/Brier Creek,10600 Little Brier Creek Lane Raleigh
2012,William B. Umstead State Park,35.8894623,-78.7518462,4553.473096947627,4.8,2309,"tourist_attraction,visitor_center,park,travel_agency,point_of_interest,establishment",Courtyard Raleigh-Durham Airport/Brier Creek,10600 Little Brier Creek Lane Raleigh
2012,Urban Air Trampoline and Adventure Park,35.8410684,-78.8171795,8721.046297460569,4.0,311,"amusement_park,point_of_interest,establishment",Courtyard Raleigh-Durham Airport/Brier Creek,10600 Little Brier Creek Lane Raleigh
2012,Brier Creek Commons,35.906725699999996,-78.78416709999999,1190.698633975529,4.5,5699,"shopping_mall,point_of_interest,establishment",Courtyard Raleigh-Durham Airport/Brier Creek,10600 Little Brier Creek Lane Raleigh
2012,RDU,35.866186899999995,-78.8012332,5668.076843154039,3.9,34,"airport,point_of_interest,establishment",Courtyard Raleigh-Durham Airport/Brier Creek,10600 Little Brier Creek Lane Raleigh
2012,The Westin Raleigh-Durham Airport,35.904934,-78.7813005,1490.222736960618,4.6,318,"hotel,extended_stay_hotel,lodging,point_of_interest,establishment",Courtyard Raleigh-Durham Airport/Brier Creek,10600 Little Brier Creek Lane Raleigh
2012,RTI International,35.905487,-78.86508169999999,6869.817656831113,4.0,31,"university,point_of_interest,establishment",Courtyard Raleigh-Durham Airport/Brier Creek,10600 Little Brier Creek Lane Raleigh
2012,DoubleTree by Hilton Hotel Raleigh-Durham Airport at Research Triangle Park,35.8840911,-78.84393899999999,6039.377712063796,4.3,1570,"hotel,lodging,point_of_interest,establishment",Courtyard Raleigh-Durham Airport/Brier Creek,10600 Little Brier Creek Lane Raleigh
2012,Hilton Garden Inn Raleigh-Durham Airport,35.8508694,-78.7961108,7300.913657259597,4.0,1249,"hotel,lodging,point_of_interest,establishment",Courtyard Raleigh-Durham Airport/Brier Creek,10600 Little Brier Creek Lane Raleigh
2012,Embassy Suites by Hilton Raleigh Durham Airport Brier Creek,35.9072194,-78.7765186,1581.140024651109,4.6,1555,"hotel,lodging,point_of_interest,establishment",Courtyard Raleigh-Durham Airport/Brier Creek,10600 Little Brier Creek Lane Raleigh
2012,Raleigh-Durham International Airport Observation Park,35.8835048,-78.7842237,3687.878639821701,4.5,1066,"tourist_attraction,point_of_interest,establishment",Courtyard Raleigh-Durham Airport/Brier Creek,10600 Little Brier Creek Lane Raleigh
2012,Lake Crabtree County Park,35.8439076,-78.7952217,8067.953068692597,4.7,2226,"park,tourist_attraction,point_of_interest,establishment",Courtyard Raleigh-Durham Airport/Brier Creek,10600 Little Brier Creek Lane Raleigh
2012,Marriott Raleigh Durham Research Triangle Park,35.8925822,-78.84648109999999,5733.157469549221,4.3,903,"hotel,lodging,wedding_venue,event_venue,point_of_interest,establishment",Courtyard Raleigh-Durham Airport/Brier Creek,10600 Little Brier Creek Lane Raleigh
2012,DoubleTree Suites by Hilton Hotel Raleigh - Durham,35.9097201,-78.89691,9657.281706768123,4.3,1491,"hotel,lodging,point_of_interest,establishment",Courtyard Raleigh-Durham Airport/Brier Creek,10600 Little Brier Creek Lane Raleigh
2012,Hyatt House Raleigh Durham Airport,35.8550099,-78.84069749999999,8208.393469363893,4.2,899,"hotel,lodging,point_of_interest,establishment",Courtyard Raleigh-Durham Airport/Brier Creek,10600 Little Brier Creek Lane Raleigh
2013,Columbiana Centre,34.0786359,-81.15743909999999,467.0479085325412,4.4,7173,"shopping_mall,point_of_interest,establishment",Aloft Columbia Harbison,217 Lanneau Court Columbia
2013,Lexington Medical Center,34.0067608,-81.113531,8746.96408563668,2.7,803,"hospital,health,point_of_interest,establishment",Aloft Columbia Harbison,217 Lanneau Court Columbia
2013,Frankie's Fun Park,34.083421,-81.155891,1002.5870520866991,4.4,4072,"amusement_park,bowling_alley,amusement_center,tourist_attraction,sports_complex,event_venue,point_of_interest,food,establishment",Aloft Columbia Harbison,217 Lanneau Court Columbia
2013,Saluda Shoals Park,34.051093099999996,-81.1831108,3402.8607379280097,4.7,1252,"park,tourist_attraction,point_of_interest,establishment",Aloft Columbia Harbison,217 Lanneau Court Columbia
2013,Prisma Health Baptist Parkridge Hospital,34.0873276,-81.1600112,1349.5569034406583,2.7,408,"hospital,health,point_of_interest,establishment",Aloft Columbia Harbison,217 Lanneau Court Columbia
2013,Columbia International University,34.073023299999996,-81.0739134,7964.414014888547,4.3,101,"university,point_of_interest,establishment",Aloft Columbia Harbison,217 Lanneau Court Columbia
2013,"DoubleTree by Hilton Hotel Columbia, South Carolina",34.031758499999995,-81.118758,6164.889588907831,4.1,1830,"hotel,lodging,point_of_interest,establishment",Aloft Columbia Harbison,217 Lanneau Court Columbia
2013,Hilton Garden Inn Columbia/Harbison,34.0873287,-81.1636797,1383.8291322721982,4.3,1325,"hotel,lodging,point_of_interest,establishment",Aloft Columbia Harbison,217 Lanneau Court Columbia
2013,Hampton Inn Columbia I-26/Harbison Blvd.,34.0791069,-81.150534,1002.9362591791273,4.5,1240,"hotel,lodging,point_of_interest,establishment",Aloft Columbia Harbison,217 Lanneau Court Columbia
2013,Lake Murray Public Park,34.036833699999995,-81.2185434,6851.208942296548,4.5,1562,"park,tourist_attraction,point_of_interest,establishment",Aloft Columbia Harbison,217 Lanneau Court Columbia
2013,Hampton Inn & Suites Lexington Columbia,34.0123336,-81.1729824,7086.059489260072,4.8,466,"hotel,lodging,point_of_interest,establishment",Aloft Columbia Harbison,217 Lanneau Court Columbia
2013,Hilton Garden Inn Columbia Airport,34.00465450000001,-81.10894359999999,9162.6602418409,4.5,438,"hotel,lodging,point_of_interest,establishment",Aloft Columbia Harbison,217 Lanneau Court Columbia
2013,Seven Oaks Park,34.0503541,-81.1539567,2824.0595680317124,4.5,1031,"tourist_attraction,park,point_of_interest,establishment",Aloft Columbia Harbison,217 Lanneau Court Columbia
2013,Gray Collegiate Academy,34.0049869,-81.1411317,8004.8859292656825,3.8,31,"secondary_school,university,school,point_of_interest,establishment",Aloft Columbia Harbison,217 Lanneau Court Columbia
2013,Hyatt Place Columbia/Harbison,34.091566199999995,-81.1632132,1839.5743876525205,3.9,1010,"hotel,lodging,point_of_interest,establishment",Aloft Columbia Harbison,217 Lanneau Court Columbia
2013,Saluda Riverwalk,34.0135766,-81.082009,9951.778865288275,4.9,505,"park,point_of_interest,establishment",Aloft Columbia Harbison,217 Lanneau Court Columbia
2013,"Holiday Inn Express & Suites Columbia-I-26 @ Harbison Blvd, an IHG Hotel",34.0753092,-81.1595088,78.11272330254056,3.9,693,"hotel,wedding_venue,event_venue,lodging,point_of_interest,establishment",Aloft Columbia Harbison,217 Lanneau Court Columbia
2013,Lake Murray Dam North Recreational Area,34.0644978,-81.2220713,5808.573358226251,4.6,1458,"park,tourist_attraction,point_of_interest,establishment",Aloft Columbia Harbison,217 Lanneau Court Columbia
2013,Aloft Columbia Harbison,34.0753868,-81.16026930000001,22.565631161468907,3.8,728,"hotel,lodging,point_of_interest,establishment",Aloft Columbia Harbison,217 Lanneau Court Columbia
2013,Baymont by Wyndham Columbia Northwest,34.0331167,-81.1089401,6657.202424077175,2.8,1678,"hotel,motel,lodging,point_of_interest,establishment",Aloft Columbia Harbison,217 Lanneau Court Columbia
2014,Easton Town Center,40.0505153,-82.915308,6274.134059873681,4.5,24247,"shopping_mall,movie_theater,hotel,lodging,restaurant,food,point_of_interest,establishment",Aloft Columbus Westerville,32 Heatherdown Drive Westerville
2014,Polaris Fashion Place,40.14562420000001,-82.98205759999999,6447.193582161016,4.5,10597,"shopping_mall,point_of_interest,establishment",Aloft Columbus Westerville,32 Heatherdown Drive Westerville
2014,Hilton Columbus at Easton,40.0495502,-82.9119918,6427.7849452877535,4.5,3403,"hotel,lodging,point_of_interest,establishment",Aloft Columbus Westerville,32 Heatherdown Drive Westerville
2014,Mount Carmel St. Ann's,40.1147248,-82.94613199999999,1926.9359944046662,3.0,634,"hospital,health,point_of_interest,establishment",Aloft Columbus Westerville,32 Heatherdown Drive Westerville
2014,Otterbein University,40.1268746,-82.9371852,2466.428600134741,4.2,36,"university,point_of_interest,establishment",Aloft Columbus Westerville,32 Heatherdown Drive Westerville
2014,LEGOLAND Discovery Center Columbus,40.051287599999995,-82.9158451,6182.4780066724,4.1,1839,"tourist_attraction,playground,event_venue,point_of_interest,establishment",Aloft Columbus Westerville,32 Heatherdown Drive Westerville
2014,DoubleTree by Hilton Hotel Columbus - Worthington,40.113376599999995,-83.01090239999999,7235.422408133807,3.6,2954,"hotel,lodging,point_of_interest,establishment",Aloft Columbus Westerville,32 Heatherdown Drive Westerville
2014,Hilton Columbus/Polaris,40.143405699999995,-82.9752865,5860.577897823698,4.4,1885,"hotel,lodging,point_of_interest,establishment",Aloft Columbus Westerville,32 Heatherdown Drive Westerville
2014,Nationwide Hotel & Conference Center,40.1555653,-83.0155683,9357.574680206319,4.5,1688,"hotel,wedding_venue,lodging,event_venue,point_of_interest,establishment",Aloft Columbus Westerville,32 Heatherdown Drive Westerville
2014,Inniswood Metro Gardens,40.100771699999996,-82.9010474,2236.37090742691,4.8,3150,"park,tourist_attraction,point_of_interest,establishment",Aloft Columbus Westerville,32 Heatherdown Drive Westerville
2014,Renaissance Columbus Westerville-Polaris Hotel,40.1431645,-82.94258549999999,4325.287107302739,4.6,963,"hotel,wedding_venue,lodging,event_venue,point_of_interest,establishment",Aloft Columbus Westerville,32 Heatherdown Drive Westerville
2014,"Crowne Plaza Columbus North- Worthington, an IHG Hotel",40.099396399999996,-82.98655370000002,5179.731402178907,3.8,2578,"hotel,wedding_venue,lodging,event_venue,point_of_interest,establishment",Aloft Columbus Westerville,32 Heatherdown Drive Westerville
2014,Sharon Woods,40.1165707,-82.96222949999999,3259.5686146099383,4.7,3469,"tourist_attraction,park,point_of_interest,establishment",Aloft Columbus Westerville,32 Heatherdown Drive Westerville
2014,Sheraton Suites Columbus Worthington,40.1127198,-83.00979869999999,7134.487762510321,3.8,1578,"hotel,lodging,point_of_interest,establishment",Aloft Columbus Westerville,32 Heatherdown Drive Westerville
2014,Drury Inn & Suites Columbus Polaris,40.14664090000001,-82.9693104,5785.413398233646,4.7,676,"hotel,lodging,point_of_interest,establishment",Aloft Columbus Westerville,32 Heatherdown Drive Westerville
2014,MedVet Columbus,40.109905700000006,-83.0063904,6820.79669993656,4.1,831,"veterinary_care,hospital,health,point_of_interest,establishment",Aloft Columbus Westerville,32 Heatherdown Drive Westerville
2014,Embassy Suites by Hilton Columbus,40.103267599999995,-82.9444046,1574.2173222968665,4.2,1999,"hotel,lodging,point_of_interest,establishment",Aloft Columbus Westerville,32 Heatherdown Drive Westerville
2014,Antrim Park,40.0784413,-83.0376993,9967.719957526062,4.7,2052,"park,tourist_attraction,point_of_interest,establishment",Aloft Columbus Westerville,32 Heatherdown Drive Westerville
2014,Ohio State Outpatient Care New Albany,40.084227,-82.849001,7020.687185036708,4.8,1089,"hospital,doctor,health,point_of_interest,establishment",Aloft Columbus Westerville,32 Heatherdown Drive Westerville
2014,Blendon Woods Metro Park,40.07487,-82.8823718,5118.594674377723,4.7,3192,"park,tourist_attraction,point_of_interest,establishment",Aloft Columbus Westerville,32 Heatherdown Drive Westerville
2015,Dallas Fort Worth International Airport,32.8990434,-97.0335765,7516.785285897363,4.1,54498,"airport,point_of_interest,establishment",Aloft Coppell - Grapevine,1155 Northpoint Dr Coppell
2015,Grapevine Mills,32.965993,-97.04276039999999,1163.8261437982706,4.5,26849,"shopping_mall,point_of_interest,establishment",Aloft Coppell - Grapevine,1155 Northpoint Dr Coppell
2015,Gaylord Texan Resort & Convention Center,32.9545544,-97.06447519999999,3457.3746838226507,4.4,18709,"hotel,wedding_venue,event_venue,lodging,point_of_interest,establishment",Aloft Coppell - Grapevine,1155 Northpoint Dr Coppell
2015,Great Wolf Lodge Water Park | Grapevine,32.941997799999996,-97.059787,3878.518729482134,4.1,13926,"resort_hotel,amusement_center,swimming_pool,amusement_park,bowling_alley,sports_complex,hotel,lodging,restaurant,food,point_of_interest,establishment",Aloft Coppell - Grapevine,1155 Northpoint Dr Coppell
2015,Meow Wolf Grapevine | The Real Unreal,32.966869100000004,-97.040978,996.1497660178735,4.4,3021,"tourist_attraction,amusement_center,museum,event_venue,point_of_interest,establishment",Aloft Coppell - Grapevine,1155 Northpoint Dr Coppell
2015,Hyatt Regency DFW International Airport,32.8973898,-97.0385536,7732.865844018621,4.3,4177,"hotel,lodging,point_of_interest,establishment",Aloft Coppell - Grapevine,1155 Northpoint Dr Coppell
2015,Baylor Scott & White Medical Center - Grapevine,32.9337522,-97.093764,6956.420723039741,3.3,474,"hospital,health,point_of_interest,establishment",Aloft Coppell - Grapevine,1155 Northpoint Dr Coppell
2015,LEGOLAND Discovery Center Dallas/Fort Worth,32.966645299999996,-97.04346609999999,1227.7939702632757,3.9,5289,"amusement_center,tourist_attraction,point_of_interest,establishment",Aloft Coppell - Grapevine,1155 Northpoint Dr Coppell
2015,Valley Ranch Islamic Center (VRIC),32.917277399999996,-96.9478474,9448.44472592868,4.9,983,"mosque,place_of_worship,point_of_interest,establishment",Aloft Coppell - Grapevine,1155 Northpoint Dr Coppell
2015,Round1 Bowling & Arcade,32.963784499999996,-97.04453529999999,1363.6478508507419,4.4,4381,"amusement_center,night_club,bowling_alley,sports_complex,event_venue,bar,point_of_interest,establishment",Aloft Coppell - Grapevine,1155 Northpoint Dr Coppell
2015,Southlake Town Square,32.9438618,-97.1301388,9651.466744637233,4.6,6842,"shopping_mall,point_of_interest,establishment",Aloft Coppell - Grapevine,1155 Northpoint Dr Coppell
2015,Hilton DFW Lakes Executive Conference Center,32.959467599999996,-97.0471666,1761.0658817217595,4.4,2425,"hotel,lodging,point_of_interest,establishment",Aloft Coppell - Grapevine,1155 Northpoint Dr Coppell
2015,Dallas/Fort Worth Airport Marriott,32.922128,-97.018926,5056.4472314572495,4.2,2627,"hotel,lodging,point_of_interest,establishment",Aloft Coppell - Grapevine,1155 Northpoint Dr Coppell
2015,SEA LIFE Grapevine Aquarium,32.9662578,-97.0438015,1259.6041608385565,4.4,5529,"aquarium,tourist_attraction,point_of_interest,establishment",Aloft Coppell - Grapevine,1155 Northpoint Dr Coppell
2015,Embassy Suites by Hilton Grapevine DFW Airport North,32.9561527,-97.0446492,1771.21386988892,4.3,4072,"hotel,lodging,point_of_interest,establishment",Aloft Coppell - Grapevine,1155 Northpoint Dr Coppell
2015,Medical City Lewisville,33.0454235,-97.0049828,9078.604780648142,4.3,2468,"hospital,health,point_of_interest,establishment",Aloft Coppell - Grapevine,1155 Northpoint Dr Coppell
2015,The Westin Dallas Fort Worth Airport,32.9173413,-97.00932019999999,5815.572855272891,4.2,2787,"hotel,wedding_venue,event_venue,lodging,point_of_interest,establishment",Aloft Coppell - Grapevine,1155 Northpoint Dr Coppell
2015,Medical City Las Colinas,32.9022165,-96.9572148,9887.470424039575,4.2,2371,"hospital,health,point_of_interest,establishment",Aloft Coppell - Grapevine,1155 Northpoint Dr Coppell
2015,"Hotel Vin, Autograph Collection",32.9331677,-97.07696059999999,5723.744551344046,4.6,622,"hotel,lodging,point_of_interest,establishment",Aloft Coppell - Grapevine,1155 Northpoint Dr Coppell
2015,The Westin Dallas Southlake,32.9525152,-97.13170199999999,9588.706200488561,4.6,412,"hotel,lodging,point_of_interest,establishment",Aloft Coppell - Grapevine,1155 Northpoint Dr Coppell
2016,Dallas Love Field,32.8438345,-96.8484951,1921.3774292006367,4.4,13815,"airport,point_of_interest,establishment",Aloft Dallas Love Field,2333 West Mockingbird Lane Dallas
2016,NorthPark Center,32.868639,-96.77392979999999,8323.252412497539,4.6,18106,"shopping_mall,point_of_interest,establishment",Aloft Dallas Love Field,2333 West Mockingbird Lane Dallas
2016,Children's Medical Center Dallas,32.8093936,-96.8368333,2159.8916495452836,3.3,1123,"doctor,hospital,point_of_interest,health,establishment",Aloft Dallas Love Field,2333 West Mockingbird Lane Dallas
2016,The Dallas World Aquarium,32.7834737,-96.805358,6210.485989033067,4.4,25612,"aquarium,tourist_attraction,zoo,restaurant,food,point_of_interest,establishment",Aloft Dallas Love Field,2333 West Mockingbird Lane Dallas
2016,Dallas Zoo,32.7409696,-96.81532,9986.010724877755,4.5,21448,"zoo,tourist_attraction,park,point_of_interest,establishment",Aloft Dallas Love Field,2333 West Mockingbird Lane Dallas
2016,Parkland Health,32.812157899999995,-96.8350102,1989.4825845941725,3.1,1675,"hospital,point_of_interest,health,establishment",Aloft Dallas Love Field,2333 West Mockingbird Lane Dallas
2016,Klyde Warren Park,32.7893644,-96.8016184,5966.875748980458,4.7,16871,"park,tourist_attraction,point_of_interest,establishment",Aloft Dallas Love Field,2333 West Mockingbird Lane Dallas
2016,Hilton Anatole,32.7998411,-96.82914840000001,3437.3596073829685,4.3,8820,"hotel,lodging,point_of_interest,establishment",Aloft Dallas Love Field,2333 West Mockingbird Lane Dallas
2016,Omni Dallas Hotel,32.775117,-96.80429409999999,7009.748786398956,4.5,9164,"hotel,lodging,point_of_interest,establishment",Aloft Dallas Love Field,2333 West Mockingbird Lane Dallas
2016,Perot Museum of Nature and Science,32.7869429,-96.80658439999999,5841.977290775658,4.7,18312,"tourist_attraction,museum,point_of_interest,establishment",Aloft Dallas Love Field,2333 West Mockingbird Lane Dallas
2016,UT Southwestern Medical Center,32.8157524,-96.8442985,1242.4487621974497,3.1,658,"hospital,point_of_interest,health,establishment",Aloft Dallas Love Field,2333 West Mockingbird Lane Dallas
2016,Dallas Museum of Art,32.787695899999996,-96.8010444,6134.956912628156,4.7,11473,"tourist_attraction,art_gallery,museum,point_of_interest,establishment",Aloft Dallas Love Field,2333 West Mockingbird Lane Dallas
2016,Sheraton Dallas Hotel,32.7851279,-96.7949555,6742.935222562924,4.2,6205,"hotel,lodging,point_of_interest,establishment",Aloft Dallas Love Field,2333 West Mockingbird Lane Dallas
2016,Methodist Dallas Medical Center,32.7610032,-96.8254595,7579.44743459418,4.0,1295,"hospital,point_of_interest,health,establishment",Aloft Dallas Love Field,2333 West Mockingbird Lane Dallas
2016,Hyatt Regency Dallas,32.7756262,-96.8095263,6691.025529350658,4.5,9326,"hotel,lodging,point_of_interest,establishment",Aloft Dallas Love Field,2333 West Mockingbird Lane Dallas
2016,Reunion Tower,32.775597499999996,-96.8089687,6721.597749370765,4.6,14758,"tourist_attraction,point_of_interest,establishment",Aloft Dallas Love Field,2333 West Mockingbird Lane Dallas
2016,Southern Methodist University,32.841217799999995,-96.78451749999999,6117.040145808325,4.5,498,"university,point_of_interest,establishment",Aloft Dallas Love Field,2333 West Mockingbird Lane Dallas
2016,Fair Park,32.7782181,-96.75927089999999,9854.007551666456,4.5,16145,"park,event_venue,point_of_interest,establishment",Aloft Dallas Love Field,2333 West Mockingbird Lane Dallas
2016,"Baylor University Medical Center, part of Baylor Scott & White Health",32.7895997,-96.7784089,7664.597363792847,3.2,951,"hospital,point_of_interest,health,establishment",Aloft Dallas Love Field,2333 West Mockingbird Lane Dallas
2016,Dallas Farmers Market,32.7775406,-96.79006360000001,7659.455359699867,4.5,8727,"shopping_mall,restaurant,food,market,point_of_interest,establishment",Aloft Dallas Love Field,2333 West Mockingbird Lane Dallas
2017,Denver Premium Outlets,39.9473688,-104.9857779,1941.9443536005786,4.5,4892,"shopping_mall,point_of_interest,establishment",Aloft Denver North Westminster,14780 Delaware Street Westminster
2017,"Children's Hospital Colorado North Campus, Broomfield",40.0013751,-104.9931946,4111.815493538814,4.2,1789,"hospital,doctor,health,point_of_interest,establishment",Aloft Denver North Westminster,14780 Delaware Street Westminster
2017,CommonSpirit St. Anthony North Hospital,39.955735399999995,-104.99135539999999,972.2806949527918,4.0,1764,"hospital,health,point_of_interest,establishment",Aloft Denver North Westminster,14780 Delaware Street Westminster
2017,Boondocks Food and Fun - Northglenn,39.9035161,-104.98834839999999,6778.515257550987,4.1,4360,"amusement_park,banquet_hall,bowling_alley,sports_complex,event_venue,restaurant,point_of_interest,food,establishment",Aloft Denver North Westminster,14780 Delaware Street Westminster
2017,Front Range Community College- Westminster Campus,39.900812699999996,-105.03778369999999,8144.649387295498,4.0,257,"university,point_of_interest,establishment",Aloft Denver North Westminster,14780 Delaware Street Westminster
2017,Intermountain Health Good Samaritan Hospital,39.969903099999996,-105.0869388,8241.24374380938,3.3,628,"hospital,health,point_of_interest,establishment",Aloft Denver North Westminster,14780 Delaware Street Westminster
2017,Bounce Empire,39.9843324,-105.0899926,8761.680401290081,4.5,1062,"amusement_center,amusement_park,event_venue,point_of_interest,establishment",Aloft Denver North Westminster,14780 Delaware Street Westminster
2017,Delta Hotels Denver Thornton,39.9123541,-104.9886301,5795.484590187581,3.7,2646,"hotel,lodging,point_of_interest,establishment",Aloft Denver North Westminster,14780 Delaware Street Westminster
2017,The Orchard Town Center,39.96056430000001,-104.99273819999999,472.8902067085235,4.4,5580,"shopping_mall,point_of_interest,establishment",Aloft Denver North Westminster,14780 Delaware Street Westminster
2017,Flatirons Community Church Lafayette,39.988842999999996,-105.0926594,9117.879102060066,4.7,1172,"church,place_of_worship,point_of_interest,establishment",Aloft Denver North Westminster,14780 Delaware Street Westminster
2017,DoubleTree by Hilton Hotel Denver - Thornton,39.916109,-104.98770379999999,5381.04345950023,3.9,1279,"hotel,lodging,point_of_interest,establishment",Aloft Denver North Westminster,14780 Delaware Street Westminster
2017,Eastlake & 124th,39.9230346,-104.96222279999999,5198.267852750748,4.4,20,"transit_station,train_station,bus_stop,point_of_interest,establishment",Aloft Denver North Westminster,14780 Delaware Street Westminster
2017,Carpenter Park,39.8985111,-104.94547419999999,8276.671308026009,4.7,2188,"park,tourist_attraction,point_of_interest,establishment",Aloft Denver North Westminster,14780 Delaware Street Westminster
2017,Broomfield Commons Sports Fields,39.9357541,-105.0489984,5920.595154193089,4.6,478,"park,tourist_attraction,point_of_interest,establishment",Aloft Denver North Westminster,14780 Delaware Street Westminster
2017,Hilton Garden Inn Denver/Thornton,39.9557364,-104.9864285,1029.540079953236,4.2,489,"hotel,lodging,point_of_interest,establishment",Aloft Denver North Westminster,14780 Delaware Street Westminster
2017,WOW! Children's Museum,39.998932,-105.0890433,9230.318420862086,4.4,998,"museum,point_of_interest,establishment",Aloft Denver North Westminster,14780 Delaware Street Westminster
2017,"Staybridge Suites Denver North - Thornton, an IHG Hotel",39.944231099999996,-104.9858534,2283.2970684517863,4.5,317,"hotel,extended_stay_hotel,wedding_venue,event_venue,lodging,point_of_interest,establishment",Aloft Denver North Westminster,14780 Delaware Street Westminster
2017,Air Care Colorado Emissions,39.8990709,-104.9638786,7616.334488601811,2.4,64,"point_of_interest,local_government_office,establishment",Aloft Denver North Westminster,14780 Delaware Street Westminster
2017,Colorado Department of Revenue Driver's License,39.9187979,-105.0038465,5202.796580264032,3.1,978,"point_of_interest,local_government_office,establishment",Aloft Denver North Westminster,14780 Delaware Street Westminster
2017,Holiday Inn Express & Suites Denver North - Thornton,39.9152798,-104.9832247,5503.008456417028,4.2,772,"hotel,lodging,point_of_interest,establishment",Aloft Denver North Westminster,14780 Delaware Street Westminster
2018,Dallas Fort Worth International Airport,32.8990434,-97.0335765,4549.774720355269,4.1,54498,"airport,point_of_interest,establishment",Aloft DFW Airport North,Intersection of Regent Boulevard and Statesman Drive Irving
2018,Grapevine Mills,32.965993,-97.04276039999999,4421.229255073244,4.5,26849,"shopping_mall,point_of_interest,establishment",Aloft DFW Airport North,Intersection of Regent Boulevard and Statesman Drive Irving
2018,Gaylord Texan Resort & Convention Center,32.9545544,-97.06447519999999,5323.659616572694,4.4,18709,"hotel,wedding_venue,event_venue,lodging,point_of_interest,establishment",Aloft DFW Airport North,Intersection of Regent Boulevard and Statesman Drive Irving
2018,Great Wolf Lodge Water Park | Grapevine,32.941997799999996,-97.059787,4512.161302154632,4.1,13926,"resort_hotel,bowling_alley,amusement_center,swimming_pool,amusement_park,hotel,sports_complex,restaurant,lodging,point_of_interest,food,establishment",Aloft DFW Airport North,Intersection of Regent Boulevard and Statesman Drive Irving
2018,Meow Wolf Grapevine | The Real Unreal,32.966869100000004,-97.040978,4391.530332473182,4.4,3021,"tourist_attraction,amusement_center,event_venue,museum,point_of_interest,establishment",Aloft DFW Airport North,Intersection of Regent Boulevard and Statesman Drive Irving
2018,Dallas College North Lake Campus,32.8718694,-96.96708939999999,8247.946909372142,4.2,281,"university,point_of_interest,establishment",Aloft DFW Airport North,Intersection of Regent Boulevard and Statesman Drive Irving
2018,Hyatt Regency DFW International Airport,32.8973898,-97.0385536,4931.616417335204,4.3,4177,"hotel,lodging,point_of_interest,establishment",Aloft DFW Airport North,Intersection of Regent Boulevard and Statesman Drive Irving
2018,Baylor Scott & White Medical Center - Grapevine,32.9337522,-97.093764,7632.474861383231,3.3,474,"hospital,health,point_of_interest,establishment",Aloft DFW Airport North,Intersection of Regent Boulevard and Statesman Drive Irving
2018,LEGOLAND Discovery Center Dallas/Fort Worth,32.966645299999996,-97.04346609999999,4519.139526270402,3.9,5289,"amusement_center,tourist_attraction,point_of_interest,establishment",Aloft DFW Airport North,Intersection of Regent Boulevard and Statesman Drive Irving
2018,Valley Ranch Islamic Center (VRIC),32.917277399999996,-96.9478474,6330.988646522941,4.9,983,"mosque,place_of_worship,point_of_interest,establishment",Aloft DFW Airport North,Intersection of Regent Boulevard and Statesman Drive Irving
2018,"The Ritz-Carlton Dallas, Las Colinas",32.8631082,-96.9584598,9498.661538544784,4.7,2468,"hotel,lodging,point_of_interest,establishment",Aloft DFW Airport North,Intersection of Regent Boulevard and Statesman Drive Irving
2018,Round1 Bowling & Arcade,32.963784499999996,-97.04453529999999,4351.23074163676,4.4,4381,"amusement_center,night_club,bowling_alley,sports_complex,bar,event_venue,point_of_interest,establishment",Aloft DFW Airport North,Intersection of Regent Boulevard and Statesman Drive Irving
2018,Hilton DFW Lakes Executive Conference Center,32.959467599999996,-97.0471666,4209.590794222843,4.4,2425,"hotel,lodging,point_of_interest,establishment",Aloft DFW Airport North,Intersection of Regent Boulevard and Statesman Drive Irving
2018,Dallas/Fort Worth Airport Marriott,32.922128,-97.018926,1645.2336621153504,4.2,2627,"hotel,lodging,point_of_interest,establishment",Aloft DFW Airport North,Intersection of Regent Boulevard and Statesman Drive Irving
2018,Marriott Dallas Las Colinas,32.872228899999996,-96.9417801,9636.63554101622,4.2,1740,"hotel,lodging,point_of_interest,establishment",Aloft DFW Airport North,Intersection of Regent Boulevard and Statesman Drive Irving
2018,SEA LIFE Grapevine Aquarium,32.9662578,-97.0438015,4506.997648887953,4.4,5529,"aquarium,tourist_attraction,point_of_interest,establishment",Aloft DFW Airport North,Intersection of Regent Boulevard and Statesman Drive Irving
2018,Embassy Suites by Hilton Grapevine DFW Airport North,32.9561527,-97.0446492,3798.1516955284214,4.3,4072,"hotel,lodging,point_of_interest,establishment",Aloft DFW Airport North,Intersection of Regent Boulevard and Statesman Drive Irving
2018,Medical City Las Colinas,32.9022165,-96.9572148,6329.182447188964,4.2,2371,"hospital,health,point_of_interest,establishment",Aloft DFW Airport North,Intersection of Regent Boulevard and Statesman Drive Irving
2018,The Westin Dallas Fort Worth Airport,32.9173413,-97.00932019999999,2061.148437356908,4.2,2787,"hotel,wedding_venue,event_venue,lodging,point_of_interest,establishment",Aloft DFW Airport North,Intersection of Regent Boulevard and Statesman Drive Irving
2018,The Westin Irving Convention Center at Las Colinas,32.8766988,-96.94360069999999,9159.128949118138,4.5,791,"hotel,lodging,point_of_interest,establishment",Aloft DFW Airport North,Intersection of Regent Boulevard and Statesman Drive Irving
2019,Dulles International Airport,38.9522481,-77.4578885,5458.9786220661845,4.1,21392,"airport,point_of_interest,establishment",Aloft Dulles Airport North,22390 Flagstaff Plaza Ashburn
2019,Dulles Town Center,39.032371999999995,-77.42393849999999,6359.184397300921,4.4,7542,"shopping_mall,movie_theater,food,point_of_interest,establishment",Aloft Dulles Airport North,22390 Flagstaff Plaza Ashburn
2019,King SPA,38.9163688,-77.48895739999999,9042.492588007415,4.4,2360,"spa,health,point_of_interest,establishment",Aloft Dulles Airport North,22390 Flagstaff Plaza Ashburn
2019,Lansdowne Resort,39.0835139,-77.475775,9578.127731739663,4.4,1904,"hotel,golf_course,wedding_venue,resort_hotel,athletic_field,spa,event_venue,lodging,restaurant,food,point_of_interest,establishment",Aloft Dulles Airport North,22390 Flagstaff Plaza Ashburn
2019,Hyatt Regency Dulles,38.9605941,-77.4234005,6541.088886763799,4.2,2441,"hotel,lodging,point_of_interest,establishment",Aloft Dulles Airport North,22390 Flagstaff Plaza Ashburn
2019,Inova Loudoun Hospital,39.0735661,-77.4776262,8465.020403199882,3.0,388,"hospital,health,point_of_interest,establishment",Aloft Dulles Airport North,22390 Flagstaff Plaza Ashburn
2019,Ashburn,39.005283,-77.491539,1175.3270469667302,4.3,46,"subway_station,transit_station,point_of_interest,establishment",Aloft Dulles Airport North,22390 Flagstaff Plaza Ashburn
2019,Hilton Washington Dulles Airport,38.9325939,-77.4271251,8653.61416531184,4.1,3649,"hotel,lodging,point_of_interest,establishment",Aloft Dulles Airport North,22390 Flagstaff Plaza Ashburn
2019,Hal and Berni Hanson Regional Park,38.9718192,-77.54897679999999,6432.91124362991,4.8,412,"park,point_of_interest,establishment",Aloft Dulles Airport North,22390 Flagstaff Plaza Ashburn
2019,Washington Dulles Airport Marriott,38.9593087,-77.4484205,5160.918738450221,4.0,1560,"hotel,lodging,point_of_interest,establishment",Aloft Dulles Airport North,22390 Flagstaff Plaza Ashburn
2019,All Dulles Area Muslim Society (ADAMS),39.006439799999995,-77.3792701,8958.165237512996,4.8,832,"mosque,place_of_worship,point_of_interest,establishment",Aloft Dulles Airport North,22390 Flagstaff Plaza Ashburn
2019,Washington Dulles International Airport Metrorail Station,38.955802899999995,-77.44818579999999,5497.256670030029,4.4,66,"subway_station,transit_station,point_of_interest,establishment",Aloft Dulles Airport North,22390 Flagstaff Plaza Ashburn
2019,DMV Sterling Blvd,38.9966958,-77.4081066,6412.4277985718745,4.4,451,"local_government_office,point_of_interest,establishment",Aloft Dulles Airport North,22390 Flagstaff Plaza Ashburn
2019,Northern Virginia Community College - Loudoun Campus,39.0283181,-77.3927641,8459.803740507734,3.8,106,"university,point_of_interest,establishment",Aloft Dulles Airport North,22390 Flagstaff Plaza Ashburn
2019,The Westin Washington Dulles Airport,38.9556134,-77.4282406,6599.811021732337,4.2,1781,"hotel,wedding_venue,event_venue,lodging,point_of_interest,establishment",Aloft Dulles Airport North,22390 Flagstaff Plaza Ashburn
2019,"Holiday Inn Washington-Dulles Intl Airport, an IHG Hotel",38.98449240000001,-77.42785599999999,4923.559797967598,4.1,1539,"hotel,wedding_venue,event_venue,lodging,point_of_interest,establishment",Aloft Dulles Airport North,22390 Flagstaff Plaza Ashburn
2019,Hyatt Place Herndon/Dulles Airport-East,38.9574687,-77.4202277,6973.5274974539625,4.0,1309,"hotel,lodging,point_of_interest,establishment",Aloft Dulles Airport North,22390 Flagstaff Plaza Ashburn
2019,Frying Pan Farm Park,38.9368568,-77.41106479999999,9134.45900122299,4.8,416,"park,point_of_interest,establishment",Aloft Dulles Airport North,22390 Flagstaff Plaza Ashburn
2019,StoneSprings Hospital Center,38.9402545,-77.54284299999999,8243.093081346142,4.4,1701,"hospital,health,point_of_interest,establishment",Aloft Dulles Airport North,22390 Flagstaff Plaza Ashburn
2019,"Crowne Plaza Dulles Airport, an IHG Hotel",38.958779,-77.40389499999999,8031.001239482429,4.1,1545,"hotel,wedding_venue,event_venue,lodging,point_of_interest,establishment",Aloft Dulles Airport North,22390 Flagstaff Plaza Ashburn
2020,University of Texas at El Paso,31.773197899999996,-106.5047208,2301.801147284059,4.0,247,"university,point_of_interest,establishment",Aloft El Paso Downtown,303 Texas Avenue El Paso
2020,University Medical Center of El Paso,31.7713927,-106.434171,5096.028861140425,3.2,857,"hospital,health,point_of_interest,establishment",Aloft El Paso Downtown,303 Texas Avenue El Paso
2020,Galerias Tec,31.714393299999998,-106.4220198,7892.321424458764,4.3,11901,"shopping_mall,point_of_interest,establishment",Aloft El Paso Downtown,303 Texas Avenue El Paso
2020,Rio Grande Mall,31.735367999999998,-106.44704449999999,4590.586442263286,4.5,4500,"shopping_mall,point_of_interest,establishment",Aloft El Paso Downtown,303 Texas Avenue El Paso
2020,El Paso Zoo and Botanical Gardens,31.769048899999998,-106.44488969999999,4049.7943837451353,4.3,7157,"zoo,tourist_attraction,event_venue,point_of_interest,establishment",Aloft El Paso Downtown,303 Texas Avenue El Paso
2020,Ascarate Park,31.752285399999998,-106.4023314,7980.054237912137,4.4,3746,"park,tourist_attraction,point_of_interest,establishment",Aloft El Paso Downtown,303 Texas Avenue El Paso
2020,PLAZA DE LAS AMERICAS,31.7407178,-106.45193049999999,3872.441717156158,4.3,12169,"shopping_mall,bakery,food,point_of_interest,store,establishment",Aloft El Paso Downtown,303 Texas Avenue El Paso
2020,Sunland Park Racetrack & Casino,31.804863899999997,-106.55982709999999,8577.197850510986,4.0,5728,"casino,tourist_attraction,event_venue,bar,hotel,lodging,restaurant,food,point_of_interest,establishment",Aloft El Paso Downtown,303 Texas Avenue El Paso
2020,Borunda Park,31.7361268,-106.4610376,3543.4937714260845,4.5,6500,"playground,park,point_of_interest,establishment",Aloft El Paso Downtown,303 Texas Avenue El Paso
2020,Bassett Place,31.783188400000004,-106.4129895,7405.553214780531,4.3,7963,"shopping_mall,point_of_interest,establishment",Aloft El Paso Downtown,303 Texas Avenue El Paso
2020,Central de Autobuses Ciudad Juarez,31.6922602,-106.43735210000001,8809.900416499197,3.9,3249,"bus_station,transit_station,point_of_interest,establishment",Aloft El Paso Downtown,303 Texas Avenue El Paso
2020,UACJ - ICB Instituto de Ciencias Biomedicas,31.7474767,-106.44307859999999,4304.495310241253,4.7,394,"university,point_of_interest,establishment",Aloft El Paso Downtown,303 Texas Avenue El Paso
2020,IMSS,31.705597200000003,-106.4360961,7660.909944920281,3.7,188,"hospital,health,point_of_interest,establishment",Aloft El Paso Downtown,303 Texas Avenue El Paso
2020,IMSS Hospital of Zone Number 6,31.739328500000003,-106.4504674,4072.971127756005,3.2,141,"hospital,health,point_of_interest,establishment",Aloft El Paso Downtown,303 Texas Avenue El Paso
2020,"Hotel Paso Del Norte, Autograph Collection",31.7577564,-106.4894351,366.5737947415457,4.3,1662,"hotel,lodging,point_of_interest,establishment",Aloft El Paso Downtown,303 Texas Avenue El Paso
2020,Las Palmas Medical Center,31.769965299999996,-106.49878679999999,1644.9470856579878,3.5,508,"hospital,health,point_of_interest,establishment",Aloft El Paso Downtown,303 Texas Avenue El Paso
2020,El Paso Children’s Hospital,31.7716769,-106.433967,5122.809119725594,3.2,246,"hospital,health,point_of_interest,establishment",Aloft El Paso Downtown,303 Texas Avenue El Paso
2020,Estadio de Beisbol Juárez,31.7256142,-106.4705446,4069.56535216625,4.5,2760,"stadium,sports_complex,event_venue,point_of_interest,establishment",Aloft El Paso Downtown,303 Texas Avenue El Paso
2020,The Shoppes at Solana,31.8147735,-106.54498389999999,8265.279687803519,4.0,4164,"shopping_mall,point_of_interest,establishment",Aloft El Paso Downtown,303 Texas Avenue El Paso
2020,Estadio Olímpico Benito Juárez,31.7526757,-106.4682618,1873.4017742017406,4.5,4045,"stadium,sports_complex,event_venue,athletic_field,point_of_interest,establishment",Aloft El Paso Downtown,303 Texas Avenue El Paso
2021,Stonebriar Centre,33.099101,-96.81135599999999,805.4768366407172,4.5,14029,"shopping_mall,point_of_interest,establishment",Aloft Frisco,3202 Parkwood Boulevard Frisco
2021,Legacy West,33.0810576,-96.8263461,2896.9586501859944,4.7,7222,"shopping_mall,point_of_interest,establishment",Aloft Frisco,3202 Parkwood Boulevard Frisco
2021,Grandscape,33.072216499999996,-96.8599402,5552.246074602799,4.8,4007,"shopping_mall,bar,indian_restaurant,coffee_shop,cafe,american_restaurant,sporting_goods_store,store,event_venue,restaurant,food,point_of_interest,establishment",Aloft Frisco,3202 Parkwood Boulevard Frisco
2021,Andretti Indoor Karting & Games The Colony,33.0742492,-96.8611526,5491.367842650671,4.0,3553,"amusement_center,playground,amusement_park,event_venue,point_of_interest,establishment",Aloft Frisco,3202 Parkwood Boulevard Frisco
2021,Toyota Stadium,33.1543199,-96.8352278,5734.888886807278,4.6,3871,"stadium,sports_complex,event_venue,point_of_interest,establishment",Aloft Frisco,3202 Parkwood Boulevard Frisco
2021,Children's Medical Center Plano,33.0787498,-96.8006283,3277.2945252417394,3.1,772,"hospital,doctor,health,point_of_interest,establishment",Aloft Frisco,3202 Parkwood Boulevard Frisco
2021,Arbor Hills Nature Preserve,33.0504108,-96.8529578,7047.98482833311,4.8,7075,"hiking_area,tourist_attraction,park,point_of_interest,establishment",Aloft Frisco,3202 Parkwood Boulevard Frisco
2021,Texas Health Presbyterian Hospital Plano,33.0437069,-96.8366164,7144.366470121943,3.1,654,"hospital,health,point_of_interest,establishment",Aloft Frisco,3202 Parkwood Boulevard Frisco
2021,Prestonwood Baptist Church - Plano Campus,33.028939199999996,-96.84766309999999,9022.640892798907,4.5,763,"church,place_of_worship,point_of_interest,establishment",Aloft Frisco,3202 Parkwood Boulevard Frisco
2021,Embassy Suites by Hilton Dallas Frisco Hotel & Convention Center,33.0994982,-96.8177601,696.9953896286544,4.4,2988,"hotel,lodging,point_of_interest,establishment",Aloft Frisco,3202 Parkwood Boulevard Frisco
2021,Ford Center,33.1105911,-96.8283481,1327.0779168084985,4.6,6303,"stadium,sports_complex,event_venue,point_of_interest,establishment",Aloft Frisco,3202 Parkwood Boulevard Frisco
2021,Collin College Frisco Campus,33.132282,-96.79399579999999,3590.655217704813,4.2,142,"university,point_of_interest,establishment",Aloft Frisco,3202 Parkwood Boulevard Frisco
2021,Puttery,33.0750538,-96.8599826,5350.339535407908,4.4,3326,"golf_course,night_club,bar,athletic_field,event_venue,restaurant,food,point_of_interest,establishment",Aloft Frisco,3202 Parkwood Boulevard Frisco
2021,The Shops at Willow Bend,33.0308529,-96.8320851,8439.903010455475,4.4,6042,"shopping_mall,point_of_interest,establishment",Aloft Frisco,3202 Parkwood Boulevard Frisco
2021,National Videogame Museum,33.1435117,-96.8352567,4613.778291553537,4.7,3414,"museum,tourist_attraction,point_of_interest,establishment",Aloft Frisco,3202 Parkwood Boulevard Frisco
2021,Russell Creek Park,33.0978553,-96.7596298,5270.727412485332,4.6,2415,"park,point_of_interest,establishment",Aloft Frisco,3202 Parkwood Boulevard Frisco
2021,Dallas/Plano Marriott at Legacy Town Center,33.0745133,-96.82220939999999,3498.662173052692,4.5,1762,"hotel,extended_stay_hotel,lodging,point_of_interest,establishment",Aloft Frisco,3202 Parkwood Boulevard Frisco
2021,Omni Frisco Hotel at The Star,33.109588599999995,-96.8276815,1225.3957666374636,4.6,1891,"hotel,lodging,point_of_interest,establishment",Aloft Frisco,3202 Parkwood Boulevard Frisco
2021,Hyatt Regency Frisco - Dallas,33.099452899999996,-96.8130324,706.6437396979188,4.6,647,"hotel,lodging,point_of_interest,establishment",Aloft Frisco,3202 Parkwood Boulevard Frisco
2021,The Westin Dallas Stonebriar Golf Resort & Spa,33.091722,-96.841493,2864.9999615066135,4.5,1099,"hotel,extended_stay_hotel,lodging,point_of_interest,establishment",Aloft Frisco,3202 Parkwood Boulevard Frisco
2022,Providence St. Vincent Hospital East Pavilion,45.510411,-122.7701193,9191.510559982427,3.3,147,"hospital,health,point_of_interest,establishment",Aloft Hillsboro-Beaverton,1705 Northeast Amberglen Ct. Hillsboro
2022,Providence St. Vincent Medical Center,45.510454599999996,-122.771627,9077.16035967727,3.2,540,"hospital,health,point_of_interest,establishment",Aloft Hillsboro-Beaverton,1705 Northeast Amberglen Ct. Hillsboro
2022,Kaiser Permanente Westside Medical Center,45.5394893,-122.8767522,920.4895144047636,4.2,801,"hospital,health,point_of_interest,establishment",Aloft Hillsboro-Beaverton,1705 Northeast Amberglen Ct. Hillsboro
2022,Beaverton Transit Center,45.490787,-122.80137870000001,7934.29449129041,3.9,98,"bus_stop,transit_station,point_of_interest,establishment",Aloft Hillsboro-Beaverton,1705 Northeast Amberglen Ct. Hillsboro
2022,Beaverton Driver and Motor Vehicles,45.5081045,-122.78339260000001,8282.392428943363,3.3,689,"local_government_office,point_of_interest,establishment",Aloft Hillsboro-Beaverton,1705 Northeast Amberglen Ct. Hillsboro
2022,Portland Community College Rock Creek,45.5671724,-122.86008079999999,4242.372386052988,4.1,145,"university,point_of_interest,establishment",Aloft Hillsboro-Beaverton,1705 Northeast Amberglen Ct. Hillsboro
2022,Next Level Pinball Shop & Museum,45.5357816,-122.95608250000001,5648.21710622447,4.9,2115,"museum,point_of_interest,store,establishment",Aloft Hillsboro-Beaverton,1705 Northeast Amberglen Ct. Hillsboro
2022,Hillsboro Medical Center,45.519658799999995,-122.97789089999999,7481.958520986928,2.6,188,"hospital,health,point_of_interest,establishment",Aloft Hillsboro-Beaverton,1705 Northeast Amberglen Ct. Hillsboro
2022,Hidden Creek Park West,45.522442700000006,-122.93002929999999,3788.4668505235727,4.7,239,"park,point_of_interest,establishment",Aloft Hillsboro-Beaverton,1705 Northeast Amberglen Ct. Hillsboro
2022,Providence Saint Vincent Hospital Heliport,45.510922699999995,-122.7739908,8885.754033297577,4.6,159,"heliport,airport,point_of_interest,establishment",Aloft Hillsboro-Beaverton,1705 Northeast Amberglen Ct. Hillsboro
2022,Villa Sport,45.503994899999995,-122.8247248,5599.957917701095,4.1,763,"gym,spa,sports_club,health,point_of_interest,establishment",Aloft Hillsboro-Beaverton,1705 Northeast Amberglen Ct. Hillsboro
2022,24 Hour Fitness,45.5275512,-122.8373563,3656.1414140245565,3.4,414,"gym,fitness_center,swimming_pool,spa,sports_complex,sports_club,health,point_of_interest,establishment",Aloft Hillsboro-Beaverton,1705 Northeast Amberglen Ct. Hillsboro
2022,"Embassy Suites by Hilton Portland Hillsboro, Oregon",45.54646580000001,-122.88267820000002,1522.810612409594,4.5,1347,"hotel,lodging,point_of_interest,establishment",Aloft Hillsboro-Beaverton,1705 Northeast Amberglen Ct. Hillsboro
2022,United States Postal Service,45.4863682,-122.80174389999999,8211.153476993279,2.5,293,"post_office,local_government_office,finance,point_of_interest,establishment",Aloft Hillsboro-Beaverton,1705 Northeast Amberglen Ct. Hillsboro
2022,Hillsboro Airport,45.532947899999996,-122.9479571,5005.677465741146,4.3,96,"airport,point_of_interest,establishment",Aloft Hillsboro-Beaverton,1705 Northeast Amberglen Ct. Hillsboro
2022,Washington County Courthouse,45.5232636,-122.98884269999999,8259.215174633586,3.1,197,"local_government_office,point_of_interest,establishment",Aloft Hillsboro-Beaverton,1705 Northeast Amberglen Ct. Hillsboro
2022,Tualatin Hills Nature Park,45.4982312,-122.83962469999999,5153.265589965429,4.7,2525,"park,tourist_attraction,point_of_interest,establishment",Aloft Hillsboro-Beaverton,1705 Northeast Amberglen Ct. Hillsboro
2022,Hyatt House Portland / Beaverton,45.4906102,-122.8089768,7476.146740016459,4.1,203,"hotel,lodging,point_of_interest,establishment",Aloft Hillsboro-Beaverton,1705 Northeast Amberglen Ct. Hillsboro
2022,Hillsboro DMV,45.5185519,-123.00395560000001,9501.499519614974,4.0,489,"local_government_office,point_of_interest,establishment",Aloft Hillsboro-Beaverton,1705 Northeast Amberglen Ct. Hillsboro
2022,Hilton Garden Inn Portland/Beaverton,45.5275503,-122.83564539999999,3787.7862124904664,4.1,994,"hotel,lodging,point_of_interest,establishment",Aloft Hillsboro-Beaverton,1705 Northeast Amberglen Ct. Hillsboro
2023,The Galleria,29.7391955,-95.46343420000001,733.7097242707271,4.5,33262,"shopping_mall,point_of_interest,establishment",Aloft Houston by the Galleria,5415 Westheimer Road Houston
2023,NRG Stadium,29.684721900000003,-95.41070739999999,8339.684899022328,4.6,26202,"stadium,event_venue,sports_complex,point_of_interest,establishment",Aloft Houston by the Galleria,5415 Westheimer Road Houston
2023,Memorial City Mall,29.780700200000002,-95.5379007,7988.72834724317,4.5,22319,"shopping_mall,point_of_interest,establishment",Aloft Houston by the Galleria,5415 Westheimer Road Houston
2023,Houston Zoo,29.7157813,-95.39032069999999,8185.79264885396,4.6,38968,"zoo,point_of_interest,establishment",Aloft Houston by the Galleria,5415 Westheimer Road Houston
2023,Houston Museum of Natural Science,29.722062500000003,-95.3895625,8069.642289269682,4.8,27051,"tourist_attraction,museum,point_of_interest,establishment",Aloft Houston by the Galleria,5415 Westheimer Road Houston
2023,Rice University,29.716836299999997,-95.4035531,6939.61395352064,4.7,762,"university,point_of_interest,establishment",Aloft Houston by the Galleria,5415 Westheimer Road Houston
2023,Hermann Park,29.7135284,-95.3899524,8299.900649669858,4.7,27904,"park,tourist_attraction,point_of_interest,establishment",Aloft Houston by the Galleria,5415 Westheimer Road Houston
2023,PlazAmericas,29.707319599999998,-95.5148438,5468.65924560516,4.1,7219,"shopping_mall,point_of_interest,establishment",Aloft Houston by the Galleria,5415 Westheimer Road Houston
2023,Texas Children's Hospital - West Tower,29.7078599,-95.4016281,7510.442303489432,3.5,1264,"hospital,point_of_interest,health,establishment",Aloft Houston by the Galleria,5415 Westheimer Road Houston
2023,"The Museum of Fine Arts, Houston",29.7256229,-95.3905328,7897.362617300772,4.8,10446,"tourist_attraction,museum,point_of_interest,establishment",Aloft Houston by the Galleria,5415 Westheimer Road Houston
2023,Memorial Park,29.766749800000003,-95.44104689999999,4274.087052826822,4.7,9560,"tourist_attraction,park,point_of_interest,establishment",Aloft Houston by the Galleria,5415 Westheimer Road Houston
2023,Children's Museum Houston,29.722931300000003,-95.385289,8451.903499530246,4.6,6306,"amusement_center,cafe,museum,event_venue,food,point_of_interest,establishment",Aloft Houston by the Galleria,5415 Westheimer Road Houston
2023,Houston Methodist Hospital,29.709906099999998,-95.3997186,7577.237643185193,3.6,868,"hospital,point_of_interest,health,establishment",Aloft Houston by the Galleria,5415 Westheimer Road Houston
2023,Michael E. DeBakey VA Medical Center,29.7000343,-95.38884069999999,9008.27020193802,3.3,1079,"hospital,point_of_interest,health,establishment",Aloft Houston by the Galleria,5415 Westheimer Road Houston
2023,Hyatt Regency Houston Downtown,29.756627499999997,-95.36960789999999,9993.83606204596,4.4,4876,"hotel,lodging,point_of_interest,establishment",Aloft Houston by the Galleria,5415 Westheimer Road Houston
2023,CITYCENTRE,29.781022800000002,-95.55926679999999,9749.746324222016,4.6,8013,"shopping_mall,point_of_interest,establishment",Aloft Houston by the Galleria,5415 Westheimer Road Houston
2023,Baylor College of Medicine,29.710528599999996,-95.3962414,7855.81990837584,3.7,225,"university,point_of_interest,health,establishment",Aloft Houston by the Galleria,5415 Westheimer Road Houston
2023,Buffalo Bayou Park,29.761950799999997,-95.3973908,7570.572771306805,4.7,5475,"park,tourist_attraction,historical_landmark,point_of_interest,establishment",Aloft Houston by the Galleria,5415 Westheimer Road Houston
2023,Lakewood Church,29.730285599999995,-95.4347093,3617.4776750653537,4.6,4880,"church,book_store,place_of_worship,store,point_of_interest,establishment",Aloft Houston by the Galleria,5415 Westheimer Road Houston
2023,Water Wall,29.7358507,-95.4613028,977.5584071242275,4.7,3443,"tourist_attraction,point_of_interest,establishment",Aloft Houston by the Galleria,5415 Westheimer Road Houston
2024,The Galleria,29.7391955,-95.46343420000001,9852.59652652418,4.5,33262,"shopping_mall,point_of_interest,establishment",Aloft Houston Downtown,820 Fannin Street Houston
2024,NRG Stadium,29.684721900000003,-95.41070739999999,9282.408211206064,4.6,26202,"stadium,sports_complex,event_venue,point_of_interest,establishment",Aloft Houston Downtown,820 Fannin Street Houston
2024,Houston Zoo,29.7157813,-95.39032069999999,5306.973802185382,4.6,38968,"zoo,point_of_interest,establishment",Aloft Houston Downtown,820 Fannin Street Houston
2024,Minute Maid Park,29.7572014,-95.35525,804.075678108066,4.7,27185,"stadium,sports_complex,event_venue,athletic_field,point_of_interest,establishment",Aloft Houston Downtown,820 Fannin Street Houston
2024,University of Houston,29.720462700000002,-95.34293190000001,4572.830800204205,4.3,1445,"university,point_of_interest,establishment",Aloft Houston Downtown,820 Fannin Street Houston
2024,Houston Museum of Natural Science,29.722062500000003,-95.3895625,4669.30367875556,4.8,27051,"tourist_attraction,museum,point_of_interest,establishment",Aloft Houston Downtown,820 Fannin Street Houston
2024,Discovery Green,29.753240199999997,-95.35991229999999,588.8638708649836,4.7,20482,"park,tourist_attraction,point_of_interest,establishment",Aloft Houston Downtown,820 Fannin Street Houston
2024,Rice University,29.716836299999997,-95.4035531,5943.14634262479,4.7,762,"university,point_of_interest,establishment",Aloft Houston Downtown,820 Fannin Street Houston
2024,Hermann Park,29.7135284,-95.3899524,5510.655819099214,4.7,27904,"park,tourist_attraction,point_of_interest,establishment",Aloft Houston Downtown,820 Fannin Street Houston
2024,Marriott Marquis Houston,29.754446400000003,-95.3581201,625.004560881642,4.4,7340,"hotel,wedding_venue,event_venue,lodging,point_of_interest,establishment",Aloft Houston Downtown,820 Fannin Street Houston
2024,Hilton Americas-Houston,29.751472799999995,-95.3606066,726.3788055172096,4.5,7750,"hotel,lodging,point_of_interest,establishment",Aloft Houston Downtown,820 Fannin Street Houston
2024,Texas Children's Hospital - West Tower,29.7078599,-95.4016281,6628.655605055166,3.5,1264,"hospital,health,point_of_interest,establishment",Aloft Houston Downtown,820 Fannin Street Houston
2024,"The Museum of Fine Arts, Houston",29.7256229,-95.3905328,4395.436557504283,4.8,10446,"tourist_attraction,museum,point_of_interest,establishment",Aloft Houston Downtown,820 Fannin Street Houston
2024,Hyatt Regency Houston Downtown,29.756627499999997,-95.36960789999999,590.0975448515799,4.4,4876,"hotel,lodging,point_of_interest,establishment",Aloft Houston Downtown,820 Fannin Street Houston
2024,Downtown Aquarium,29.7642703,-95.36737920000002,840.0677370646252,4.1,22474,"aquarium,tourist_attraction,amusement_park,restaurant,food,point_of_interest,establishment",Aloft Houston Downtown,820 Fannin Street Houston
2024,Children's Museum Houston,29.722931300000003,-95.385289,4376.127268491553,4.6,6306,"amusement_center,cafe,museum,event_venue,food,point_of_interest,establishment",Aloft Houston Downtown,820 Fannin Street Houston
2024,Michael E. DeBakey VA Medical Center,29.7000343,-95.38884069999999,6837.338735237472,3.3,1079,"hospital,health,point_of_interest,establishment",Aloft Houston Downtown,820 Fannin Street Houston
2024,Memorial Park,29.766749800000003,-95.44104689999999,7549.076656315325,4.7,9560,"tourist_attraction,park,point_of_interest,establishment",Aloft Houston Downtown,820 Fannin Street Houston
